[
  {
    "time": "2018-04-03",
    "lng": 115.741,
    "lat": 32.675,
    "address": "中国安徽省阜阳市阜南县在小孙庄附近",
    "type": "执行矫正",
    "label": "矫正越界",
    "value": 5
  },
  {
    "time": "2018-04-01",
    "lng": 115.741,
    "lat": 32.675,
    "address": "中国安徽省阜阳市阜南县在小孙庄附近",
    "type": "执行矫正",
    "label": "矫正越界",
    "value": 5
  },
  {
    "time": "2018-04-01",
    "lng": 115.741,
    "lat": 32.675,
    "address": "中国安徽省阜阳市阜南县在小孙庄附近",
    "type": "执行矫正",
    "label": "矫正越界",
    "value": 5
  },
  {
    "time": "2018-04-02",
    "lng": 115.741,
    "lat": 32.675,
    "address": "中国安徽省阜阳市阜南县在小孙庄附近",
    "type": "执行矫正",
    "label": "矫正越界",
    "value": 5
  },
  {
    "time": "2018-04-02",
    "lng": 115.741,
    "lat": 32.675,
    "address": "中国安徽省阜阳市阜南县在小孙庄附近",
    "type": "执行矫正",
    "label": "矫正越界",
    "value": 5
  },
  {
    "time": "2018-04-01",
    "lng": 115.766,
    "lat": 32.685,
    "address": "安徽省阜阳市阜南县",
    "type": "执行矫正",
    "label": "矫正越界",
    "value": 1
  },
  {
    "time": "2018-04-02",
    "lng": 115.778,
    "lat": 32.701,
    "address": "中国安徽省阜阳市阜南县Y037在衣衣不舍精品服饰附近",
    "type": "执行矫正",
    "label": "矫正越界",
    "value": 2
  },
  {
    "time": "2018-04-02",
    "lng": 115.778,
    "lat": 32.701,
    "address": "中国安徽省阜阳市阜南县Y037在衣衣不舍精品服饰附近",
    "type": "执行矫正",
    "label": "矫正越界",
    "value": 2
  },
  {
    "time": "2018-04-03",
    "lng": 115.78,
    "lat": 32.702,
    "address": "中国安徽省阜阳市阜南县Y037在焦陂民族村附近",
    "type": "执行矫正",
    "label": "矫正越界",
    "value": 2
  },
  {
    "time": "2018-04-03",
    "lng": 115.78,
    "lat": 32.702,
    "address": "中国安徽省阜阳市阜南县Y037在焦陂民族村附近",
    "type": "执行矫正",
    "label": "矫正越界",
    "value": 2
  },
  {
    "time": "2018-04-03",
    "lng": 115.781,
    "lat": 32.68,
    "address": "中国安徽省阜阳市阜南县在杜郢村附近",
    "type": "执行矫正",
    "label": "矫正越界",
    "value": 2
  },
  {
    "time": "2018-04-01",
    "lng": 115.781,
    "lat": 32.68,
    "address": "中国安徽省阜阳市阜南县在杜郢村附近",
    "type": "执行矫正",
    "label": "矫正越界",
    "value": 2
  },
  {
    "time": "2018-04-01",
    "lng": 115.781,
    "lat": 32.681,
    "address": "安徽省阜阳市阜南县",
    "type": "执行矫正",
    "label": "矫正越界",
    "value": 8
  },
  {
    "time": "2018-04-03",
    "lng": 115.781,
    "lat": 32.681,
    "address": "安徽省阜阳市阜南县",
    "type": "执行矫正",
    "label": "矫正越界",
    "value": 8
  },
  {
    "time": "2018-04-02",
    "lng": 115.781,
    "lat": 32.681,
    "address": "安徽省阜阳市阜南县",
    "type": "执行矫正",
    "label": "矫正越界",
    "value": 8
  },
  {
    "time": "2018-04-03",
    "lng": 115.781,
    "lat": 32.681,
    "address": "安徽省阜阳市阜南县",
    "type": "执行矫正",
    "label": "矫正越界",
    "value": 8
  },
  {
    "time": "2018-04-04",
    "lng": 115.781,
    "lat": 32.681,
    "address": "安徽省阜阳市阜南县",
    "type": "执行矫正",
    "label": "矫正越界",
    "value": 8
  },
  {
    "time": "2018-04-01",
    "lng": 115.781,
    "lat": 32.681,
    "address": "安徽省阜阳市阜南县",
    "type": "执行矫正",
    "label": "矫正越界",
    "value": 8
  },
  {
    "time": "2018-04-02",
    "lng": 115.781,
    "lat": 32.681,
    "address": "安徽省阜阳市阜南县",
    "type": "执行矫正",
    "label": "矫正越界",
    "value": 8
  },
  {
    "time": "2018-04-01",
    "lng": 115.781,
    "lat": 32.681,
    "address": "安徽省阜阳市阜南县",
    "type": "执行矫正",
    "label": "矫正越界",
    "value": 8
  },
  {
    "time": "2018-02-10",
    "lng": 120.002,
    "lat": 32.582,
    "address": "中国江苏省泰州市姜堰区中兴路在泰州市江堰区淤溪卫生院附近",
    "type": "执行矫正",
    "label": "矫正越界",
    "value": 2
  },
  {
    "time": "2018-02-10",
    "lng": 120.002,
    "lat": 32.582,
    "address": "中国江苏省泰州市姜堰区中兴路在泰州市江堰区淤溪卫生院附近",
    "type": "执行矫正",
    "label": "矫正越界",
    "value": 2
  },
  {
    "time": "2018-02-10",
    "lng": 120.23,
    "lat": 32.519,
    "address": "江苏省泰州市姜堰区",
    "type": "执行矫正",
    "label": "矫正越界",
    "value": 1
  },
  {
    "time": "2018-02-10",
    "lng": 120.323,
    "lat": 32.486,
    "address": "江苏省南通市海安县",
    "type": "执行矫正",
    "label": "矫正越界",
    "value": 1
  },
  {
    "time": "2018-02-10",
    "lng": 120.433,
    "lat": 32.477,
    "address": "江苏省南通市海安县",
    "type": "执行矫正",
    "label": "矫正越界",
    "value": 1
  },
  {
    "time": "2018-05-31",
    "lng": 120.532,
    "lat": 32.376,
    "address": "江苏省南通市如皋市科技路",
    "type": "执行矫正",
    "label": "矫正越界",
    "value": 2
  },
  {
    "time": "2018-05-31",
    "lng": 120.532,
    "lat": 32.376,
    "address": "江苏省南通市如皋市科技路",
    "type": "执行矫正",
    "label": "矫正越界",
    "value": 2
  },
  {
    "time": "2018-02-10",
    "lng": 120.532,
    "lat": 32.476,
    "address": "江苏省南通市如皋市",
    "type": "执行矫正",
    "label": "矫正越界",
    "value": 1
  },
  {
    "time": "2018-05-31",
    "lng": 120.534,
    "lat": 32.411,
    "address": "江苏省南通市如皋市惠民西路",
    "type": "执行矫正",
    "label": "矫正越界",
    "value": 1
  },
  {
    "time": "2018-05-31",
    "lng": 120.552,
    "lat": 32.683,
    "address": "江苏省盐城市东台市",
    "type": "执行矫正",
    "label": "矫正越界",
    "value": 1
  },
  {
    "time": "2018-05-31",
    "lng": 120.554,
    "lat": 31.876,
    "address": "江苏省苏州市张家港市河东北路26号",
    "type": "执行矫正",
    "label": "矫正越界",
    "value": 1
  },
  {
    "time": "2018-05-15",
    "lng": 120.556,
    "lat": 31.876,
    "address": "江苏省苏州市张家港市城北路155号",
    "type": "执行矫正",
    "label": "矫正越界",
    "value": 1
  },
  {
    "time": "2018-02-10",
    "lng": 120.597,
    "lat": 32.458,
    "address": "江苏省南通市如皋市",
    "type": "执行矫正",
    "label": "矫正越界",
    "value": 1
  },
  {
    "time": "2018-05-31",
    "lng": 120.638,
    "lat": 31.906,
    "address": "江苏省苏州市张家港市",
    "type": "执行矫正",
    "label": "矫正越界",
    "value": 1
  },
  {
    "time": "2018-02-10",
    "lng": 120.638,
    "lat": 32.393,
    "address": "江苏省南通市如皋市",
    "type": "执行矫正",
    "label": "矫正越界",
    "value": 1
  },
  {
    "time": "2018-02-10",
    "lng": 120.686,
    "lat": 32.348,
    "address": "江苏省南通市如皋市",
    "type": "执行矫正",
    "label": "矫正越界",
    "value": 1
  },
  {
    "time": "2018-05-31",
    "lng": 120.698,
    "lat": 32.634,
    "address": "江苏省盐城市东台市心新路",
    "type": "执行矫正",
    "label": "矫正越界",
    "value": 2
  },
  {
    "time": "2018-05-31",
    "lng": 120.698,
    "lat": 32.634,
    "address": "江苏省盐城市东台市心新路",
    "type": "执行矫正",
    "label": "矫正越界",
    "value": 2
  },
  {
    "time": "2018-05-31",
    "lng": 120.698,
    "lat": 32.635,
    "address": "江苏省盐城市东台市心新路",
    "type": "执行矫正",
    "label": "矫正越界",
    "value": 1
  },
  {
    "time": "2018-05-31",
    "lng": 120.704,
    "lat": 32.658,
    "address": "江苏省盐城市东台市",
    "type": "执行矫正",
    "label": "矫正越界",
    "value": 2
  },
  {
    "time": "2018-05-31",
    "lng": 120.704,
    "lat": 32.658,
    "address": "江苏省盐城市东台市",
    "type": "执行矫正",
    "label": "矫正越界",
    "value": 2
  },
  {
    "time": "2018-05-31",
    "lng": 120.743,
    "lat": 32.661,
    "address": "江苏省盐城市东台市",
    "type": "执行矫正",
    "label": "矫正越界",
    "value": 1
  },
  {
    "time": "2018-02-10",
    "lng": 120.756,
    "lat": 32.313,
    "address": "江苏省南通市如皋市",
    "type": "执行矫正",
    "label": "矫正越界",
    "value": 1
  },
  {
    "time": "2018-02-10",
    "lng": 120.767,
    "lat": 32.295,
    "address": "江苏省南通市如皋市",
    "type": "执行矫正",
    "label": "矫正越界",
    "value": 2
  },
  {
    "time": "2018-02-10",
    "lng": 120.767,
    "lat": 32.295,
    "address": "江苏省南通市如皋市",
    "type": "执行矫正",
    "label": "矫正越界",
    "value": 2
  },
  {
    "time": "2018-02-10",
    "lng": 120.768,
    "lat": 32.294,
    "address": "江苏省南通市如皋市",
    "type": "执行矫正",
    "label": "矫正越界",
    "value": 1
  },
  {
    "time": "2018-02-10",
    "lng": 120.8,
    "lat": 32.237,
    "address": "江苏省南通市通州区",
    "type": "执行矫正",
    "label": "矫正越界",
    "value": 1
  },
  {
    "time": "2018-05-31",
    "lng": 120.813,
    "lat": 32.02,
    "address": "江苏省南通市港闸区通沙汽渡",
    "type": "执行矫正",
    "label": "矫正越界",
    "value": 1
  },
  {
    "time": "2018-02-10",
    "lng": 120.842,
    "lat": 32.185,
    "address": "江苏省南通市通州区",
    "type": "执行矫正",
    "label": "矫正越界",
    "value": 1
  },
  {
    "time": "2018-06-01",
    "lng": 120.869,
    "lat": 32.151,
    "address": "江苏省南通市通州区慎修中心路",
    "type": "执行矫正",
    "label": "矫正越界",
    "value": 1
  },
  {
    "time": "2018-02-10",
    "lng": 120.871,
    "lat": 31.377,
    "address": "江苏省苏州市昆山市",
    "type": "执行矫正",
    "label": "矫正越界",
    "value": 1
  },
  {
    "time": "2018-02-10",
    "lng": 120.878,
    "lat": 32.131,
    "address": "江苏省南通市通州区",
    "type": "执行矫正",
    "label": "矫正越界",
    "value": 1
  },
  {
    "time": "2018-02-10",
    "lng": 120.89,
    "lat": 31.443,
    "address": "江苏省苏州市昆山市",
    "type": "执行矫正",
    "label": "矫正越界",
    "value": 1
  },
  {
    "time": "2018-02-10",
    "lng": 120.893,
    "lat": 31.511,
    "address": "江苏省苏州市昆山市",
    "type": "执行矫正",
    "label": "矫正越界",
    "value": 3
  },
  {
    "time": "2018-02-10",
    "lng": 120.893,
    "lat": 31.511,
    "address": "江苏省苏州市昆山市",
    "type": "执行矫正",
    "label": "矫正越界",
    "value": 3
  },
  {
    "time": "2018-02-10",
    "lng": 120.893,
    "lat": 31.511,
    "address": "江苏省苏州市昆山市",
    "type": "执行矫正",
    "label": "矫正越界",
    "value": 3
  },
  {
    "time": "2018-02-10",
    "lng": 120.893,
    "lat": 31.518,
    "address": "江苏省苏州市昆山市",
    "type": "执行矫正",
    "label": "矫正越界",
    "value": 1
  },
  {
    "time": "2018-05-15",
    "lng": 120.898,
    "lat": 31.509,
    "address": "江苏省苏州市昆山市常昆线",
    "type": "执行矫正",
    "label": "矫正越界",
    "value": 1
  },
  {
    "time": "2018-02-10",
    "lng": 120.903,
    "lat": 32.078,
    "address": "江苏省南通市港闸区",
    "type": "执行矫正",
    "label": "矫正越界",
    "value": 1
  },
  {
    "time": "2018-02-10",
    "lng": 120.909,
    "lat": 32.087,
    "address": "江苏省南通市通州区",
    "type": "执行矫正",
    "label": "矫正越界",
    "value": 1
  },
  {
    "time": "2018-02-10",
    "lng": 120.909,
    "lat": 32.088,
    "address": "江苏省南通市通州区",
    "type": "执行矫正",
    "label": "矫正越界",
    "value": 1
  },
  {
    "time": "2018-02-10",
    "lng": 120.913,
    "lat": 31.592,
    "address": "江苏省苏州市常熟市G15W2(常嘉高速)",
    "type": "执行矫正",
    "label": "矫正越界",
    "value": 1
  },
  {
    "time": "2018-02-10",
    "lng": 120.913,
    "lat": 31.651,
    "address": "江苏省苏州市常熟市",
    "type": "执行矫正",
    "label": "矫正越界",
    "value": 1
  },
  {
    "time": "2018-02-10",
    "lng": 120.92,
    "lat": 31.655,
    "address": "江苏省苏州市常熟市华烨大道6号",
    "type": "执行矫正",
    "label": "矫正越界",
    "value": 1
  },
  {
    "time": "2018-02-10",
    "lng": 120.922,
    "lat": 32.076,
    "address": "江苏省南通市通州区",
    "type": "执行矫正",
    "label": "矫正越界",
    "value": 1
  },
  {
    "time": "2018-02-10",
    "lng": 120.923,
    "lat": 32.067,
    "address": "江苏省南通市通州区",
    "type": "执行矫正",
    "label": "矫正越界",
    "value": 1
  },
  {
    "time": "2018-02-10",
    "lng": 120.926,
    "lat": 32.045,
    "address": "江苏省南通市通州区S335(江海大道)",
    "type": "执行矫正",
    "label": "矫正越界",
    "value": 1
  },
  {
    "time": "2018-02-10",
    "lng": 120.928,
    "lat": 31.347,
    "address": "江苏省苏州市昆山市",
    "type": "执行矫正",
    "label": "矫正越界",
    "value": 1
  },
  {
    "time": "2018-05-31",
    "lng": 120.929,
    "lat": 31.672,
    "address": "江苏省苏州市常熟市老新丰路",
    "type": "执行矫正",
    "label": "矫正越界",
    "value": 1
  },
  {
    "time": "2018-02-10",
    "lng": 120.946,
    "lat": 31.673,
    "address": "江苏省苏州市常熟市",
    "type": "执行矫正",
    "label": "矫正越界",
    "value": 1
  },
  {
    "time": "2018-02-10",
    "lng": 120.947,
    "lat": 32.018,
    "address": "江苏省南通市崇川区",
    "type": "执行矫正",
    "label": "矫正越界",
    "value": 1
  },
  {
    "time": "2018-02-10",
    "lng": 120.948,
    "lat": 31.675,
    "address": "江苏省苏州市常熟市",
    "type": "执行矫正",
    "label": "矫正越界",
    "value": 1
  },
  {
    "time": "2018-02-10",
    "lng": 120.963,
    "lat": 31.693,
    "address": "江苏省苏州市常熟市",
    "type": "执行矫正",
    "label": "矫正越界",
    "value": 1
  },
  {
    "time": "2018-02-10",
    "lng": 120.963,
    "lat": 31.966,
    "address": "江苏省南通市通州区通沪大道高架",
    "type": "执行矫正",
    "label": "矫正越界",
    "value": 1
  },
  {
    "time": "2018-02-10",
    "lng": 120.976,
    "lat": 31.744,
    "address": "江苏省苏州市常熟市",
    "type": "执行矫正",
    "label": "矫正越界",
    "value": 1
  },
  {
    "time": "2018-02-10",
    "lng": 120.977,
    "lat": 31.726,
    "address": "江苏省苏州市常熟市",
    "type": "执行矫正",
    "label": "矫正越界",
    "value": 1
  },
  {
    "time": "2018-02-10",
    "lng": 120.978,
    "lat": 31.712,
    "address": "江苏省苏州市常熟市",
    "type": "执行矫正",
    "label": "矫正越界",
    "value": 1
  },
  {
    "time": "2018-02-10",
    "lng": 120.982,
    "lat": 31.717,
    "address": "中国江苏省苏州市常熟市吴淼线在常熟市东昇羊毛衫厂附近",
    "type": "执行矫正",
    "label": "矫正越界",
    "value": 1
  },
  {
    "time": "2018-02-10",
    "lng": 120.982,
    "lat": 31.738,
    "address": "江苏省苏州市常熟市",
    "type": "执行矫正",
    "label": "矫正越界",
    "value": 1
  },
  {
    "time": "2018-02-10",
    "lng": 120.982,
    "lat": 31.742,
    "address": "江苏省苏州市常熟市",
    "type": "执行矫正",
    "label": "矫正越界",
    "value": 1
  },
  {
    "time": "2018-02-10",
    "lng": 120.983,
    "lat": 31.735,
    "address": "江苏省苏州市常熟市",
    "type": "执行矫正",
    "label": "矫正越界",
    "value": 1
  },
  {
    "time": "2018-06-01",
    "lng": 120.987,
    "lat": 32.002,
    "address": "江苏省南通市通州区富锋路",
    "type": "执行矫正",
    "label": "矫正越界",
    "value": 1
  },
  {
    "time": "2018-06-01",
    "lng": 120.987,
    "lat": 32.003,
    "address": "江苏省南通市通州区富锋路",
    "type": "执行矫正",
    "label": "矫正越界",
    "value": 3
  },
  {
    "time": "2018-06-01",
    "lng": 120.987,
    "lat": 32.003,
    "address": "江苏省南通市通州区富锋路",
    "type": "执行矫正",
    "label": "矫正越界",
    "value": 3
  },
  {
    "time": "2018-06-01",
    "lng": 120.987,
    "lat": 32.003,
    "address": "江苏省南通市通州区富锋路",
    "type": "执行矫正",
    "label": "矫正越界",
    "value": 3
  },
  {
    "time": "2018-02-10",
    "lng": 120.991,
    "lat": 31.882,
    "address": "江苏省南通市通州区",
    "type": "执行矫正",
    "label": "矫正越界",
    "value": 1
  },
  {
    "time": "2018-02-10",
    "lng": 120.993,
    "lat": 31.768,
    "address": "江苏省苏州市常熟市",
    "type": "执行矫正",
    "label": "矫正越界",
    "value": 1
  },
  {
    "time": "2018-02-10",
    "lng": 120.995,
    "lat": 31.819,
    "address": "江苏省南通市通州区G15(沈海高速)",
    "type": "执行矫正",
    "label": "矫正越界",
    "value": 1
  },
  {
    "time": "2018-02-10",
    "lng": 120.995,
    "lat": 31.95,
    "address": "江苏省南通市通州区",
    "type": "执行矫正",
    "label": "矫正越界",
    "value": 1
  },
  {
    "time": "2018-06-01",
    "lng": 121.002,
    "lat": 31.808,
    "address": "江苏省南通市通州区",
    "type": "执行矫正",
    "label": "矫正越界",
    "value": 1
  },
  {
    "time": "2018-02-10",
    "lng": 121.018,
    "lat": 31.333,
    "address": "江苏省苏州市昆山市",
    "type": "执行矫正",
    "label": "矫正越界",
    "value": 1
  },
  {
    "time": "2018-05-31",
    "lng": 121.042,
    "lat": 31.605,
    "address": "江苏省苏州市太仓市新茜线",
    "type": "执行矫正",
    "label": "矫正越界",
    "value": 1
  },
  {
    "time": "2018-02-10",
    "lng": 121.097,
    "lat": 31.308,
    "address": "江苏省苏州市昆山市G42(京沪高速)",
    "type": "执行矫正",
    "label": "矫正越界",
    "value": 1
  },
  {
    "time": "2018-02-10",
    "lng": 121.142,
    "lat": 31.288,
    "address": "江苏省苏州市昆山市",
    "type": "执行矫正",
    "label": "矫正越界",
    "value": 1
  },
  {
    "time": "2018-02-10",
    "lng": 121.185,
    "lat": 31.255,
    "address": "上海市青浦区",
    "type": "执行矫正",
    "label": "潜在异常",
    "value": 1
  },
  {
    "time": "2018-06-01",
    "lng": 121.19,
    "lat": 31.406,
    "address": "上海市嘉定区朱戴路",
    "type": "执行矫正",
    "label": "潜在异常",
    "value": 1
  },
  {
    "time": "2018-05-29",
    "lng": 121.232,
    "lat": 31.038,
    "address": "上海市松江区文诚路34号",
    "type": "执行矫正",
    "label": "潜在异常",
    "value": 1
  },
  {
    "time": "2018-05-29",
    "lng": 121.235,
    "lat": 31.038,
    "address": "上海市松江区园中路1号7楼",
    "type": "执行矫正",
    "label": "潜在异常",
    "value": 1
  },
  {
    "time": "2018-02-10",
    "lng": 121.236,
    "lat": 31.244,
    "address": "上海市闵行区",
    "type": "执行矫正",
    "label": "潜在异常",
    "value": 1
  },
  {
    "time": "2018-05-15",
    "lng": 121.258,
    "lat": 31.325,
    "address": "上海市嘉定区G15(沈海高速)",
    "type": "执行矫正",
    "label": "潜在异常",
    "value": 1
  },
  {
    "time": "2018-02-10",
    "lng": 121.269,
    "lat": 31.185,
    "address": "上海市青浦区华徐公路335号",
    "type": "执行矫正",
    "label": "潜在异常",
    "value": 1
  },
  {
    "time": "2018-06-02",
    "lng": 121.279,
    "lat": 31.111,
    "address": "中国上海市松江区泗砖公路100号在湘里红(泗砖公路店)附近",
    "type": "执行矫正",
    "label": "潜在异常",
    "value": 1
  },
  {
    "time": "2018-06-02",
    "lng": 121.28,
    "lat": 31.111,
    "address": "中国上海市松江区泗砖路103号在松江钢材城附近",
    "type": "执行矫正",
    "label": "潜在异常",
    "value": 2
  },
  {
    "time": "2018-06-02",
    "lng": 121.28,
    "lat": 31.111,
    "address": "中国上海市松江区泗砖路103号在松江钢材城附近",
    "type": "执行矫正",
    "label": "潜在异常",
    "value": 2
  },
  {
    "time": "2018-06-02",
    "lng": 121.281,
    "lat": 31.089,
    "address": "上海市松江区洞莘路55号",
    "type": "执行矫正",
    "label": "潜在异常",
    "value": 1
  },
  {
    "time": "2018-06-01",
    "lng": 121.284,
    "lat": 31.115,
    "address": "上海市松江区沪松公路2789号",
    "type": "执行矫正",
    "label": "潜在异常",
    "value": 1
  },
  {
    "time": "2018-06-02",
    "lng": 121.285,
    "lat": 31.11,
    "address": "上海市松江区",
    "type": "执行矫正",
    "label": "潜在异常",
    "value": 1
  },
  {
    "time": "2018-05-29",
    "lng": 121.292,
    "lat": 31.149,
    "address": "上海市松江区洋河浜路618",
    "type": "执行矫正",
    "label": "潜在异常",
    "value": 1
  },
  {
    "time": "2018-02-10",
    "lng": 121.298,
    "lat": 30.997,
    "address": "上海市松江区",
    "type": "执行矫正",
    "label": "潜在异常",
    "value": 1
  },
  {
    "time": "2018-02-10",
    "lng": 121.299,
    "lat": 31.061,
    "address": "上海市松江区",
    "type": "执行矫正",
    "label": "潜在异常",
    "value": 1
  },
  {
    "time": "2018-02-10",
    "lng": 121.3,
    "lat": 31.128,
    "address": "上海市松江区G15(沈海高速)",
    "type": "执行矫正",
    "label": "潜在异常",
    "value": 1
  },
  {
    "time": "2018-02-10",
    "lng": 121.308,
    "lat": 30.972,
    "address": "上海市松江区",
    "type": "执行矫正",
    "label": "潜在异常",
    "value": 1
  },
  {
    "time": "2018-02-14",
    "lng": 121.309,
    "lat": 30.959,
    "address": "上海市松江区",
    "type": "执行矫正",
    "label": "潜在异常",
    "value": 1
  },
  {
    "time": "2018-02-14",
    "lng": 121.31,
    "lat": 30.957,
    "address": "上海市松江区",
    "type": "执行矫正",
    "label": "潜在异常",
    "value": 1
  },
  {
    "time": "2018-02-14",
    "lng": 121.31,
    "lat": 30.958,
    "address": "上海市松江区",
    "type": "执行矫正",
    "label": "潜在异常",
    "value": 1
  },
  {
    "time": "2018-06-02",
    "lng": 121.325,
    "lat": 31.171,
    "address": "上海市青浦区光联二路",
    "type": "执行矫正",
    "label": "潜在异常",
    "value": 2
  },
  {
    "time": "2018-06-02",
    "lng": 121.325,
    "lat": 31.171,
    "address": "上海市青浦区光联二路",
    "type": "执行矫正",
    "label": "潜在异常",
    "value": 2
  },
  {
    "time": "2018-02-14",
    "lng": 121.326,
    "lat": 30.953,
    "address": "上海市松江区大叶公路376号",
    "type": "执行矫正",
    "label": "正常",
    "value": 1
  },
  {
    "time": "2018-02-10",
    "lng": 121.328,
    "lat": 30.953,
    "address": "上海市松江区大叶公路371号",
    "type": "执行矫正",
    "label": "正常",
    "value": 1
  },
  {
    "time": "2018-06-02",
    "lng": 121.335,
    "lat": 31.157,
    "address": "上海市松江区涞亭北路276号",
    "type": "执行矫正",
    "label": "潜在异常",
    "value": 3
  },
  {
    "time": "2018-05-29",
    "lng": 121.335,
    "lat": 31.157,
    "address": "上海市松江区涞亭北路276号",
    "type": "执行矫正",
    "label": "潜在异常",
    "value": 3
  },
  {
    "time": "2018-06-02",
    "lng": 121.335,
    "lat": 31.157,
    "address": "上海市松江区涞亭北路276号",
    "type": "执行矫正",
    "label": "潜在异常",
    "value": 3
  },
  {
    "time": "2018-06-01",
    "lng": 121.342,
    "lat": 31.144,
    "address": "上海市松江区涞亭南路165",
    "type": "执行矫正",
    "label": "潜在异常",
    "value": 2
  },
  {
    "time": "2018-06-02",
    "lng": 121.342,
    "lat": 31.144,
    "address": "上海市松江区涞亭南路165",
    "type": "执行矫正",
    "label": "潜在异常",
    "value": 2
  },
  {
    "time": "2018-06-01",
    "lng": 121.344,
    "lat": 31.152,
    "address": "上海市闵行区嘉闵高架路",
    "type": "执行矫正",
    "label": "潜在异常",
    "value": 1
  },
  {
    "time": "2018-06-01",
    "lng": 121.347,
    "lat": 31.149,
    "address": "中国上海市闵行区联明路53号在清美美食附近",
    "type": "执行矫正",
    "label": "潜在异常",
    "value": 1
  },
  {
    "time": "2018-06-01",
    "lng": 121.348,
    "lat": 31.157,
    "address": "上海市闵行区沪松公路555号",
    "type": "执行矫正",
    "label": "潜在异常",
    "value": 1
  },
  {
    "time": "2018-06-01",
    "lng": 121.35,
    "lat": 31.157,
    "address": "上海市闵行区沪松公路565弄61",
    "type": "执行矫正",
    "label": "潜在异常",
    "value": 1
  },
  {
    "time": "2018-02-26",
    "lng": 121.354,
    "lat": 30.722,
    "address": "中国上海市金山区杭州湾大道118号在海景商业广场附近",
    "type": "执行矫正",
    "label": "潜在异常",
    "value": 2
  },
  {
    "time": "2018-02-26",
    "lng": 121.354,
    "lat": 30.722,
    "address": "中国上海市金山区杭州湾大道118号在海景商业广场附近",
    "type": "执行矫正",
    "label": "潜在异常",
    "value": 2
  },
  {
    "time": "2018-03-28",
    "lng": 121.356,
    "lat": 31.065,
    "address": "中国上海市闵行区在液化空气安法科(上海)贸易有限公司附近",
    "type": "执行矫正",
    "label": "正常",
    "value": 1
  },
  {
    "time": "2018-03-18",
    "lng": 121.361,
    "lat": 31.064,
    "address": "中国上海市闵行区光华路1792号在六磊路附近",
    "type": "执行矫正",
    "label": "正常",
    "value": 1
  },
  {
    "time": "2018-03-17",
    "lng": 121.361,
    "lat": 31.066,
    "address": "中国上海市闵行区华西路500号在上海松力生物技术有限公司(华西路)附近",
    "type": "执行矫正",
    "label": "正常",
    "value": 1
  },
  {
    "time": "2018-03-28",
    "lng": 121.361,
    "lat": 31.067,
    "address": "中国上海市闵行区华西路500号在上海松力生物技术有限公司(华西路)附近",
    "type": "执行矫正",
    "label": "正常",
    "value": 1
  },
  {
    "time": "2018-02-01",
    "lng": 121.362,
    "lat": 31.064,
    "address": "上海市闵行区光华路1655号",
    "type": "执行矫正",
    "label": "正常",
    "value": 1
  },
  {
    "time": "2018-02-01",
    "lng": 121.362,
    "lat": 31.065,
    "address": "上海市闵行区光华路1766号",
    "type": "执行矫正",
    "label": "正常",
    "value": 5
  },
  {
    "time": "2018-02-01",
    "lng": 121.362,
    "lat": 31.065,
    "address": "上海市闵行区光华路1762号",
    "type": "执行矫正",
    "label": "正常",
    "value": 5
  },
  {
    "time": "2018-02-01",
    "lng": 121.362,
    "lat": 31.065,
    "address": "上海市闵行区光华路1762号",
    "type": "执行矫正",
    "label": "正常",
    "value": 5
  },
  {
    "time": "2018-03-03",
    "lng": 121.362,
    "lat": 31.065,
    "address": "中国上海市闵行区光华路1750号在六磊路附近",
    "type": "执行矫正",
    "label": "正常",
    "value": 5
  },
  {
    "time": "2018-03-18",
    "lng": 121.362,
    "lat": 31.065,
    "address": "中国上海市闵行区光华路1750号在六磊路附近",
    "type": "执行矫正",
    "label": "正常",
    "value": 5
  },
  {
    "time": "2018-06-01",
    "lng": 121.363,
    "lat": 31.061,
    "address": "上海市闵行区X237(昆阳路)",
    "type": "执行矫正",
    "label": "正常",
    "value": 3
  },
  {
    "time": "2018-05-15",
    "lng": 121.363,
    "lat": 31.061,
    "address": "上海市闵行区X237(昆阳路)",
    "type": "执行矫正",
    "label": "正常",
    "value": 3
  },
  {
    "time": "2018-06-02",
    "lng": 121.363,
    "lat": 31.061,
    "address": "上海市闵行区X237(昆阳路)",
    "type": "执行矫正",
    "label": "正常",
    "value": 3
  },
  {
    "time": "2018-05-29",
    "lng": 121.364,
    "lat": 31.1,
    "address": "上海市松江区新南路99弄",
    "type": "执行矫正",
    "label": "正常",
    "value": 1
  },
  {
    "time": "2018-06-02",
    "lng": 121.365,
    "lat": 31.1,
    "address": "上海市松江区新南路99弄",
    "type": "执行矫正",
    "label": "正常",
    "value": 1
  },
  {
    "time": "2018-05-15",
    "lng": 121.368,
    "lat": 31.067,
    "address": "中国上海市闵行区光华路1228号在上海越衍机械设备有限公司附近",
    "type": "执行矫正",
    "label": "正常",
    "value": 1
  },
  {
    "time": "2018-02-01",
    "lng": 121.372,
    "lat": 31.057,
    "address": "上海市闵行区华宁路3380号",
    "type": "执行矫正",
    "label": "正常",
    "value": 1
  },
  {
    "time": "2018-02-14",
    "lng": 121.374,
    "lat": 30.955,
    "address": "上海市奉贤区大叶公路1789",
    "type": "执行矫正",
    "label": "正常",
    "value": 1
  },
  {
    "time": "2018-02-01",
    "lng": 121.376,
    "lat": 31.049,
    "address": "上海市闵行区",
    "type": "执行矫正",
    "label": "正常",
    "value": 1
  },
  {
    "time": "2018-02-01",
    "lng": 121.377,
    "lat": 31.042,
    "address": "上海市闵行区联青路135弄-1-～247号",
    "type": "执行矫正",
    "label": "正常",
    "value": 1
  },
  {
    "time": "2018-02-10",
    "lng": 121.378,
    "lat": 30.955,
    "address": "上海市奉贤区",
    "type": "执行矫正",
    "label": "正常",
    "value": 1
  },
  {
    "time": "2018-02-08",
    "lng": 121.379,
    "lat": 30.926,
    "address": "上海市奉贤区姚新路159号",
    "type": "执行矫正",
    "label": "正常",
    "value": 1
  },
  {
    "time": "2018-02-01",
    "lng": 121.379,
    "lat": 31.046,
    "address": "上海市闵行区",
    "type": "执行矫正",
    "label": "正常",
    "value": 1
  },
  {
    "time": "2018-02-01",
    "lng": 121.38,
    "lat": 31.046,
    "address": "上海市闵行区",
    "type": "执行矫正",
    "label": "正常",
    "value": 1
  },
  {
    "time": "2018-03-15",
    "lng": 121.381,
    "lat": 30.949,
    "address": "中国上海市奉贤区在东篱园老邻居饭庄附近",
    "type": "执行矫正",
    "label": "正常",
    "value": 1
  },
  {
    "time": "2018-02-08",
    "lng": 121.383,
    "lat": 30.944,
    "address": "上海市奉贤区",
    "type": "执行矫正",
    "label": "正常",
    "value": 1
  },
  {
    "time": "2018-02-01",
    "lng": 121.383,
    "lat": 31.032,
    "address": "上海市闵行区华宁路",
    "type": "执行矫正",
    "label": "正常",
    "value": 1
  },
  {
    "time": "2018-02-08",
    "lng": 121.384,
    "lat": 30.944,
    "address": "上海市奉贤区",
    "type": "执行矫正",
    "label": "正常",
    "value": 6
  },
  {
    "time": "2018-02-08",
    "lng": 121.384,
    "lat": 30.944,
    "address": "上海市奉贤区",
    "type": "执行矫正",
    "label": "正常",
    "value": 6
  },
  {
    "time": "2018-02-08",
    "lng": 121.384,
    "lat": 30.944,
    "address": "上海市奉贤区",
    "type": "执行矫正",
    "label": "正常",
    "value": 6
  },
  {
    "time": "2018-03-19",
    "lng": 121.384,
    "lat": 30.944,
    "address": "中国上海市奉贤区在金家庄园附近",
    "type": "执行矫正",
    "label": "正常",
    "value": 6
  },
  {
    "time": "2018-03-19",
    "lng": 121.384,
    "lat": 30.944,
    "address": "中国上海市奉贤区在金家庄园附近",
    "type": "执行矫正",
    "label": "正常",
    "value": 6
  },
  {
    "time": "2018-02-08",
    "lng": 121.384,
    "lat": 30.944,
    "address": "上海市奉贤区",
    "type": "执行矫正",
    "label": "正常",
    "value": 6
  },
  {
    "time": "2018-05-06",
    "lng": 121.384,
    "lat": 30.962,
    "address": "中国上海市奉贤区北环路在上海嵘泰制衣有限公司附近",
    "type": "执行矫正",
    "label": "正常",
    "value": 2
  },
  {
    "time": "2018-05-06",
    "lng": 121.384,
    "lat": 30.962,
    "address": "中国上海市奉贤区北环路在上海嵘泰制衣有限公司附近",
    "type": "执行矫正",
    "label": "正常",
    "value": 2
  },
  {
    "time": "2018-02-01",
    "lng": 121.384,
    "lat": 31.029,
    "address": "上海市闵行区华宁路1629号",
    "type": "执行矫正",
    "label": "正常",
    "value": 1
  },
  {
    "time": "2018-02-18",
    "lng": 121.385,
    "lat": 30.965,
    "address": "上海市奉贤区北环路646号",
    "type": "执行矫正",
    "label": "正常",
    "value": 1
  },
  {
    "time": "2018-02-19",
    "lng": 121.385,
    "lat": 30.968,
    "address": "上海市奉贤区",
    "type": "执行矫正",
    "label": "正常",
    "value": 1
  },
  {
    "time": "2018-03-10",
    "lng": 121.386,
    "lat": 30.965,
    "address": "上海市奉贤区庄胡路686",
    "type": "执行矫正",
    "label": "正常",
    "value": 1
  },
  {
    "time": "2018-02-11",
    "lng": 121.386,
    "lat": 30.97,
    "address": "上海市奉贤区",
    "type": "执行矫正",
    "label": "正常",
    "value": 1
  },
  {
    "time": "2018-05-29",
    "lng": 121.386,
    "lat": 31.027,
    "address": "上海市闵行区银康路",
    "type": "执行矫正",
    "label": "正常",
    "value": 1
  },
  {
    "time": "2018-02-01",
    "lng": 121.386,
    "lat": 31.043,
    "address": "上海市闵行区",
    "type": "执行矫正",
    "label": "正常",
    "value": 1
  },
  {
    "time": "2018-02-08",
    "lng": 121.387,
    "lat": 30.901,
    "address": "上海市奉贤区",
    "type": "执行矫正",
    "label": "正常",
    "value": 1
  },
  {
    "time": "2018-03-04",
    "lng": 121.387,
    "lat": 30.956,
    "address": "上海市奉贤区",
    "type": "执行矫正",
    "label": "正常",
    "value": 1
  },
  {
    "time": "2018-02-27",
    "lng": 121.387,
    "lat": 30.964,
    "address": "上海市奉贤区北环路539号",
    "type": "执行矫正",
    "label": "正常",
    "value": 1
  },
  {
    "time": "2018-02-19",
    "lng": 121.387,
    "lat": 30.966,
    "address": "上海市奉贤区",
    "type": "执行矫正",
    "label": "正常",
    "value": 1
  },
  {
    "time": "2018-05-23",
    "lng": 121.387,
    "lat": 30.968,
    "address": "上海市奉贤区",
    "type": "执行矫正",
    "label": "正常",
    "value": 5
  },
  {
    "time": "2018-06-03",
    "lng": 121.387,
    "lat": 30.968,
    "address": "上海市奉贤区",
    "type": "执行矫正",
    "label": "正常",
    "value": 5
  },
  {
    "time": "2018-05-29",
    "lng": 121.387,
    "lat": 30.968,
    "address": "上海市奉贤区",
    "type": "执行矫正",
    "label": "正常",
    "value": 5
  },
  {
    "time": "2018-06-03",
    "lng": 121.387,
    "lat": 30.968,
    "address": "上海市奉贤区",
    "type": "执行矫正",
    "label": "正常",
    "value": 5
  },
  {
    "time": "2018-05-24",
    "lng": 121.387,
    "lat": 30.968,
    "address": "上海市奉贤区",
    "type": "执行矫正",
    "label": "正常",
    "value": 5
  },
  {
    "time": "2018-03-04",
    "lng": 121.388,
    "lat": 30.955,
    "address": "上海市奉贤区浦卫公路1580号",
    "type": "执行矫正",
    "label": "正常",
    "value": 1
  },
  {
    "time": "2018-03-01",
    "lng": 121.388,
    "lat": 30.962,
    "address": "上海市奉贤区浦卫公路1269",
    "type": "执行矫正",
    "label": "正常",
    "value": 1
  },
  {
    "time": "2018-02-12",
    "lng": 121.388,
    "lat": 30.967,
    "address": "上海市奉贤区",
    "type": "执行矫正",
    "label": "正常",
    "value": 1
  },
  {
    "time": "2018-02-12",
    "lng": 121.388,
    "lat": 30.969,
    "address": "上海市奉贤区",
    "type": "执行矫正",
    "label": "正常",
    "value": 1
  },
  {
    "time": "2018-03-02",
    "lng": 121.389,
    "lat": 30.962,
    "address": "上海市奉贤区",
    "type": "执行矫正",
    "label": "正常",
    "value": 1
  },
  {
    "time": "2018-02-09",
    "lng": 121.389,
    "lat": 30.963,
    "address": "上海市奉贤区",
    "type": "执行矫正",
    "label": "正常",
    "value": 2
  },
  {
    "time": "2018-02-09",
    "lng": 121.389,
    "lat": 30.963,
    "address": "上海市奉贤区",
    "type": "执行矫正",
    "label": "正常",
    "value": 2
  },
  {
    "time": "2018-03-19",
    "lng": 121.389,
    "lat": 30.968,
    "address": "上海市奉贤区",
    "type": "执行矫正",
    "label": "正常",
    "value": 1
  },
  {
    "time": "2018-02-20",
    "lng": 121.39,
    "lat": 30.958,
    "address": "上海市奉贤区大叶公路2199号",
    "type": "执行矫正",
    "label": "正常",
    "value": 1
  },
  {
    "time": "2018-01-17",
    "lng": 121.39,
    "lat": 30.96,
    "address": "上海市奉贤区",
    "type": "执行矫正",
    "label": "正常",
    "value": 1
  },
  {
    "time": "2018-03-17",
    "lng": 121.39,
    "lat": 30.97,
    "address": "上海市奉贤区",
    "type": "执行矫正",
    "label": "正常",
    "value": 1
  },
  {
    "time": "2018-02-08",
    "lng": 121.391,
    "lat": 30.948,
    "address": "上海市奉贤区",
    "type": "执行矫正",
    "label": "正常",
    "value": 1
  },
  {
    "time": "2018-03-04",
    "lng": 121.391,
    "lat": 30.951,
    "address": "上海市奉贤区",
    "type": "执行矫正",
    "label": "正常",
    "value": 1
  },
  {
    "time": "2018-05-16",
    "lng": 121.391,
    "lat": 30.959,
    "address": "上海市奉贤区S324(大叶公路)",
    "type": "执行矫正",
    "label": "正常",
    "value": 3
  },
  {
    "time": "2018-05-16",
    "lng": 121.391,
    "lat": 30.959,
    "address": "上海市奉贤区S324(大叶公路)",
    "type": "执行矫正",
    "label": "正常",
    "value": 3
  },
  {
    "time": "2018-06-03",
    "lng": 121.391,
    "lat": 30.959,
    "address": "上海市奉贤区S324(大叶公路)",
    "type": "执行矫正",
    "label": "正常",
    "value": 3
  },
  {
    "time": "2018-03-29",
    "lng": 121.391,
    "lat": 30.962,
    "address": "中国上海市奉贤区汇中西路88在上海晶鑫电工设备有限公司附近",
    "type": "执行矫正",
    "label": "正常",
    "value": 2
  },
  {
    "time": "2018-03-30",
    "lng": 121.391,
    "lat": 30.962,
    "address": "上海市奉贤区汇安路238",
    "type": "执行矫正",
    "label": "正常",
    "value": 2
  },
  {
    "time": "2018-02-06",
    "lng": 121.391,
    "lat": 30.963,
    "address": "上海市奉贤区汇中西路88",
    "type": "执行矫正",
    "label": "正常",
    "value": 14
  },
  {
    "time": "2018-02-14",
    "lng": 121.391,
    "lat": 30.963,
    "address": "上海市奉贤区汇中西路88",
    "type": "执行矫正",
    "label": "正常",
    "value": 14
  },
  {
    "time": "2018-01-29",
    "lng": 121.391,
    "lat": 30.963,
    "address": "上海市奉贤区汇中西路29号",
    "type": "执行矫正",
    "label": "正常",
    "value": 14
  },
  {
    "time": "2018-03-30",
    "lng": 121.391,
    "lat": 30.963,
    "address": "中国上海市奉贤区汇中西路29号在邬桥耀光小区附近",
    "type": "执行矫正",
    "label": "正常",
    "value": 14
  },
  {
    "time": "2018-03-28",
    "lng": 121.391,
    "lat": 30.963,
    "address": "上海市奉贤区汇中西路88",
    "type": "执行矫正",
    "label": "正常",
    "value": 14
  },
  {
    "time": "2018-03-29",
    "lng": 121.391,
    "lat": 30.963,
    "address": "中国上海市奉贤区汇中西路88在鸿运来餐厅附近",
    "type": "执行矫正",
    "label": "正常",
    "value": 14
  },
  {
    "time": "2018-02-24",
    "lng": 121.391,
    "lat": 30.963,
    "address": "上海市奉贤区汇中西路29号",
    "type": "执行矫正",
    "label": "正常",
    "value": 14
  },
  {
    "time": "2018-02-04",
    "lng": 121.391,
    "lat": 30.963,
    "address": "上海市奉贤区汇中西路29号",
    "type": "执行矫正",
    "label": "正常",
    "value": 14
  },
  {
    "time": "2018-03-06",
    "lng": 121.391,
    "lat": 30.963,
    "address": "上海市奉贤区汇中西路29号",
    "type": "执行矫正",
    "label": "正常",
    "value": 14
  },
  {
    "time": "2018-02-15",
    "lng": 121.391,
    "lat": 30.963,
    "address": "上海市奉贤区汇中西路29号",
    "type": "执行矫正",
    "label": "正常",
    "value": 14
  },
  {
    "time": "2018-02-10",
    "lng": 121.391,
    "lat": 30.963,
    "address": "上海市奉贤区汇中西路29号",
    "type": "执行矫正",
    "label": "正常",
    "value": 14
  },
  {
    "time": "2018-03-29",
    "lng": 121.391,
    "lat": 30.963,
    "address": "上海市奉贤区汇中西路29号",
    "type": "执行矫正",
    "label": "正常",
    "value": 14
  },
  {
    "time": "2018-01-25",
    "lng": 121.391,
    "lat": 30.963,
    "address": "上海市奉贤区汇中西路29号",
    "type": "执行矫正",
    "label": "正常",
    "value": 14
  },
  {
    "time": "2018-05-10",
    "lng": 121.391,
    "lat": 30.963,
    "address": "中国上海市奉贤区汇中西路29号在邬桥耀光小区附近",
    "type": "执行矫正",
    "label": "正常",
    "value": 14
  },
  {
    "time": "2018-02-04",
    "lng": 121.391,
    "lat": 30.966,
    "address": "上海市奉贤区北环路328",
    "type": "执行矫正",
    "label": "正常",
    "value": 1
  },
  {
    "time": "2018-03-29",
    "lng": 121.391,
    "lat": 30.97,
    "address": "上海市奉贤区",
    "type": "执行矫正",
    "label": "正常",
    "value": 1
  },
  {
    "time": "2018-05-24",
    "lng": 121.392,
    "lat": 30.954,
    "address": "上海市奉贤区",
    "type": "执行矫正",
    "label": "正常",
    "value": 2
  },
  {
    "time": "2018-05-16",
    "lng": 121.392,
    "lat": 30.954,
    "address": "上海市奉贤区",
    "type": "执行矫正",
    "label": "正常",
    "value": 2
  },
  {
    "time": "2018-03-04",
    "lng": 121.392,
    "lat": 30.959,
    "address": "上海市奉贤区大叶公路2389",
    "type": "执行矫正",
    "label": "正常",
    "value": 1
  },
  {
    "time": "2018-01-24",
    "lng": 121.392,
    "lat": 30.963,
    "address": "上海市奉贤区汇中西路29号",
    "type": "执行矫正",
    "label": "正常",
    "value": 390
  },
  {
    "time": "2018-03-06",
    "lng": 121.392,
    "lat": 30.963,
    "address": "上海市奉贤区汇中西路29号",
    "type": "执行矫正",
    "label": "正常",
    "value": 390
  },
  {
    "time": "2018-03-12",
    "lng": 121.392,
    "lat": 30.963,
    "address": "上海市奉贤区汇中西路29号",
    "type": "执行矫正",
    "label": "正常",
    "value": 390
  },
  {
    "time": "2018-03-10",
    "lng": 121.392,
    "lat": 30.963,
    "address": "上海市奉贤区汇中西路29号",
    "type": "执行矫正",
    "label": "正常",
    "value": 390
  },
  {
    "time": "2018-03-11",
    "lng": 121.392,
    "lat": 30.963,
    "address": "上海市奉贤区汇中西路29号",
    "type": "执行矫正",
    "label": "正常",
    "value": 390
  },
  {
    "time": "2018-03-16",
    "lng": 121.392,
    "lat": 30.963,
    "address": "上海市奉贤区汇中西路29号",
    "type": "执行矫正",
    "label": "正常",
    "value": 390
  },
  {
    "time": "2018-03-17",
    "lng": 121.392,
    "lat": 30.963,
    "address": "上海市奉贤区汇中西路29号",
    "type": "执行矫正",
    "label": "正常",
    "value": 390
  },
  {
    "time": "2018-02-04",
    "lng": 121.392,
    "lat": 30.963,
    "address": "上海市奉贤区汇中西路29号",
    "type": "执行矫正",
    "label": "正常",
    "value": 390
  },
  {
    "time": "2018-02-12",
    "lng": 121.392,
    "lat": 30.963,
    "address": "上海市奉贤区汇中西路29号",
    "type": "执行矫正",
    "label": "正常",
    "value": 390
  },
  {
    "time": "2018-02-15",
    "lng": 121.392,
    "lat": 30.963,
    "address": "上海市奉贤区汇中西路29号",
    "type": "执行矫正",
    "label": "正常",
    "value": 390
  },
  {
    "time": "2018-02-05",
    "lng": 121.392,
    "lat": 30.963,
    "address": "上海市奉贤区汇中西路29号",
    "type": "执行矫正",
    "label": "正常",
    "value": 390
  },
  {
    "time": "2018-02-12",
    "lng": 121.392,
    "lat": 30.963,
    "address": "上海市奉贤区汇中西路29号",
    "type": "执行矫正",
    "label": "正常",
    "value": 390
  },
  {
    "time": "2018-02-12",
    "lng": 121.392,
    "lat": 30.963,
    "address": "上海市奉贤区汇中西路29号",
    "type": "执行矫正",
    "label": "正常",
    "value": 390
  },
  {
    "time": "2018-02-02",
    "lng": 121.392,
    "lat": 30.963,
    "address": "上海市奉贤区汇中西路29号",
    "type": "执行矫正",
    "label": "正常",
    "value": 390
  },
  {
    "time": "2018-03-16",
    "lng": 121.392,
    "lat": 30.963,
    "address": "上海市奉贤区汇中西路29号",
    "type": "执行矫正",
    "label": "正常",
    "value": 390
  },
  {
    "time": "2018-03-29",
    "lng": 121.392,
    "lat": 30.963,
    "address": "上海市奉贤区汇中西路29号",
    "type": "执行矫正",
    "label": "正常",
    "value": 390
  },
  {
    "time": "2018-03-10",
    "lng": 121.392,
    "lat": 30.963,
    "address": "上海市奉贤区汇中西路29号",
    "type": "执行矫正",
    "label": "正常",
    "value": 390
  },
  {
    "time": "2018-02-11",
    "lng": 121.392,
    "lat": 30.963,
    "address": "上海市奉贤区汇中西路29号",
    "type": "执行矫正",
    "label": "正常",
    "value": 390
  },
  {
    "time": "2018-02-12",
    "lng": 121.392,
    "lat": 30.963,
    "address": "上海市奉贤区汇中西路29号",
    "type": "执行矫正",
    "label": "正常",
    "value": 390
  },
  {
    "time": "2018-03-31",
    "lng": 121.392,
    "lat": 30.963,
    "address": "上海市奉贤区汇中西路29号",
    "type": "执行矫正",
    "label": "正常",
    "value": 390
  },
  {
    "time": "2018-04-01",
    "lng": 121.392,
    "lat": 30.963,
    "address": "上海市奉贤区汇中西路29号",
    "type": "执行矫正",
    "label": "正常",
    "value": 390
  },
  {
    "time": "2018-03-11",
    "lng": 121.392,
    "lat": 30.963,
    "address": "上海市奉贤区汇中西路29号",
    "type": "执行矫正",
    "label": "正常",
    "value": 390
  },
  {
    "time": "2018-03-12",
    "lng": 121.392,
    "lat": 30.963,
    "address": "上海市奉贤区汇中西路29号",
    "type": "执行矫正",
    "label": "正常",
    "value": 390
  },
  {
    "time": "2018-02-13",
    "lng": 121.392,
    "lat": 30.963,
    "address": "上海市奉贤区汇中西路29号",
    "type": "执行矫正",
    "label": "正常",
    "value": 390
  },
  {
    "time": "2018-01-17",
    "lng": 121.392,
    "lat": 30.963,
    "address": "上海市奉贤区汇中西路29号",
    "type": "执行矫正",
    "label": "正常",
    "value": 390
  },
  {
    "time": "2018-03-15",
    "lng": 121.392,
    "lat": 30.963,
    "address": "上海市奉贤区汇中西路29号",
    "type": "执行矫正",
    "label": "正常",
    "value": 390
  },
  {
    "time": "2018-02-04",
    "lng": 121.392,
    "lat": 30.963,
    "address": "上海市奉贤区汇中西路29号",
    "type": "执行矫正",
    "label": "正常",
    "value": 390
  },
  {
    "time": "2018-05-10",
    "lng": 121.392,
    "lat": 30.963,
    "address": "中国上海市奉贤区汇中西路29号在鸿运来餐厅附近",
    "type": "执行矫正",
    "label": "正常",
    "value": 390
  },
  {
    "time": "2018-03-17",
    "lng": 121.392,
    "lat": 30.963,
    "address": "中国上海市奉贤区汇中西路29号在鸿运来餐厅附近",
    "type": "执行矫正",
    "label": "正常",
    "value": 390
  },
  {
    "time": "2018-03-10",
    "lng": 121.392,
    "lat": 30.963,
    "address": "上海市奉贤区汇中西路29号",
    "type": "执行矫正",
    "label": "正常",
    "value": 390
  },
  {
    "time": "2018-03-13",
    "lng": 121.392,
    "lat": 30.963,
    "address": "上海市奉贤区汇中西路29号",
    "type": "执行矫正",
    "label": "正常",
    "value": 390
  },
  {
    "time": "2018-02-15",
    "lng": 121.392,
    "lat": 30.963,
    "address": "上海市奉贤区汇中西路29号",
    "type": "执行矫正",
    "label": "正常",
    "value": 390
  },
  {
    "time": "2018-02-16",
    "lng": 121.392,
    "lat": 30.963,
    "address": "上海市奉贤区汇中西路29号",
    "type": "执行矫正",
    "label": "正常",
    "value": 390
  },
  {
    "time": "2018-02-09",
    "lng": 121.392,
    "lat": 30.963,
    "address": "上海市奉贤区汇中西路29号",
    "type": "执行矫正",
    "label": "正常",
    "value": 390
  },
  {
    "time": "2018-02-10",
    "lng": 121.392,
    "lat": 30.963,
    "address": "上海市奉贤区汇中西路29号",
    "type": "执行矫正",
    "label": "正常",
    "value": 390
  },
  {
    "time": "2018-02-05",
    "lng": 121.392,
    "lat": 30.963,
    "address": "上海市奉贤区汇中西路29号",
    "type": "执行矫正",
    "label": "正常",
    "value": 390
  },
  {
    "time": "2018-05-12",
    "lng": 121.392,
    "lat": 30.963,
    "address": "中国上海市奉贤区汇中西路29号在邬桥耀光小区附近",
    "type": "执行矫正",
    "label": "正常",
    "value": 390
  },
  {
    "time": "2018-02-02",
    "lng": 121.392,
    "lat": 30.963,
    "address": "上海市奉贤区汇中西路29号",
    "type": "执行矫正",
    "label": "正常",
    "value": 390
  },
  {
    "time": "2018-02-02",
    "lng": 121.392,
    "lat": 30.963,
    "address": "上海市奉贤区汇中西路29号",
    "type": "执行矫正",
    "label": "正常",
    "value": 390
  },
  {
    "time": "2018-02-09",
    "lng": 121.392,
    "lat": 30.963,
    "address": "上海市奉贤区汇中西路29号",
    "type": "执行矫正",
    "label": "正常",
    "value": 390
  },
  {
    "time": "2018-02-04",
    "lng": 121.392,
    "lat": 30.963,
    "address": "上海市奉贤区汇中西路29号",
    "type": "执行矫正",
    "label": "正常",
    "value": 390
  },
  {
    "time": "2018-01-28",
    "lng": 121.392,
    "lat": 30.963,
    "address": "上海市奉贤区汇中西路29号",
    "type": "执行矫正",
    "label": "正常",
    "value": 390
  },
  {
    "time": "2018-03-13",
    "lng": 121.392,
    "lat": 30.963,
    "address": "上海市奉贤区汇中西路29号",
    "type": "执行矫正",
    "label": "正常",
    "value": 390
  },
  {
    "time": "2018-02-13",
    "lng": 121.392,
    "lat": 30.963,
    "address": "上海市奉贤区汇中西路29号",
    "type": "执行矫正",
    "label": "正常",
    "value": 390
  },
  {
    "time": "2018-02-14",
    "lng": 121.392,
    "lat": 30.963,
    "address": "上海市奉贤区汇中西路29号",
    "type": "执行矫正",
    "label": "正常",
    "value": 390
  },
  {
    "time": "2018-02-02",
    "lng": 121.392,
    "lat": 30.963,
    "address": "上海市奉贤区汇中西路29号",
    "type": "执行矫正",
    "label": "正常",
    "value": 390
  },
  {
    "time": "2018-02-02",
    "lng": 121.392,
    "lat": 30.963,
    "address": "上海市奉贤区汇中西路29号",
    "type": "执行矫正",
    "label": "正常",
    "value": 390
  },
  {
    "time": "2018-02-12",
    "lng": 121.392,
    "lat": 30.963,
    "address": "上海市奉贤区汇中西路29号",
    "type": "执行矫正",
    "label": "正常",
    "value": 390
  },
  {
    "time": "2018-03-12",
    "lng": 121.392,
    "lat": 30.963,
    "address": "上海市奉贤区汇中西路29号",
    "type": "执行矫正",
    "label": "正常",
    "value": 390
  },
  {
    "time": "2018-03-13",
    "lng": 121.392,
    "lat": 30.963,
    "address": "上海市奉贤区汇中西路29号",
    "type": "执行矫正",
    "label": "正常",
    "value": 390
  },
  {
    "time": "2018-03-16",
    "lng": 121.392,
    "lat": 30.963,
    "address": "上海市奉贤区汇中西路29号",
    "type": "执行矫正",
    "label": "正常",
    "value": 390
  },
  {
    "time": "2018-03-17",
    "lng": 121.392,
    "lat": 30.963,
    "address": "上海市奉贤区汇中西路29号",
    "type": "执行矫正",
    "label": "正常",
    "value": 390
  },
  {
    "time": "2018-02-15",
    "lng": 121.392,
    "lat": 30.963,
    "address": "上海市奉贤区汇中西路29号",
    "type": "执行矫正",
    "label": "正常",
    "value": 390
  },
  {
    "time": "2018-02-26",
    "lng": 121.392,
    "lat": 30.963,
    "address": "中国上海市奉贤区汇中西路29号在鸿运来餐厅附近",
    "type": "执行矫正",
    "label": "正常",
    "value": 390
  },
  {
    "time": "2018-03-13",
    "lng": 121.392,
    "lat": 30.963,
    "address": "上海市奉贤区汇中西路29号",
    "type": "执行矫正",
    "label": "正常",
    "value": 390
  },
  {
    "time": "2018-02-11",
    "lng": 121.392,
    "lat": 30.963,
    "address": "上海市奉贤区汇中西路29号",
    "type": "执行矫正",
    "label": "正常",
    "value": 390
  },
  {
    "time": "2018-02-12",
    "lng": 121.392,
    "lat": 30.963,
    "address": "上海市奉贤区汇中西路29号",
    "type": "执行矫正",
    "label": "正常",
    "value": 390
  },
  {
    "time": "2018-02-09",
    "lng": 121.392,
    "lat": 30.963,
    "address": "上海市奉贤区汇中西路29号",
    "type": "执行矫正",
    "label": "正常",
    "value": 390
  },
  {
    "time": "2018-03-13",
    "lng": 121.392,
    "lat": 30.963,
    "address": "上海市奉贤区汇中西路29号",
    "type": "执行矫正",
    "label": "正常",
    "value": 390
  },
  {
    "time": "2018-03-15",
    "lng": 121.392,
    "lat": 30.963,
    "address": "上海市奉贤区汇中西路29号",
    "type": "执行矫正",
    "label": "正常",
    "value": 390
  },
  {
    "time": "2018-03-16",
    "lng": 121.392,
    "lat": 30.963,
    "address": "上海市奉贤区汇中西路29号",
    "type": "执行矫正",
    "label": "正常",
    "value": 390
  },
  {
    "time": "2018-02-26",
    "lng": 121.392,
    "lat": 30.963,
    "address": "中国上海市奉贤区汇中西路29号在鸿运来餐厅附近",
    "type": "执行矫正",
    "label": "正常",
    "value": 390
  },
  {
    "time": "2018-03-29",
    "lng": 121.392,
    "lat": 30.963,
    "address": "上海市奉贤区汇中西路29号",
    "type": "执行矫正",
    "label": "正常",
    "value": 390
  },
  {
    "time": "2018-02-11",
    "lng": 121.392,
    "lat": 30.963,
    "address": "中国上海市奉贤区汇中西路29号在鸿运来餐厅附近",
    "type": "执行矫正",
    "label": "正常",
    "value": 390
  },
  {
    "time": "2018-03-17",
    "lng": 121.392,
    "lat": 30.963,
    "address": "上海市奉贤区汇中西路29号",
    "type": "执行矫正",
    "label": "正常",
    "value": 390
  },
  {
    "time": "2018-01-31",
    "lng": 121.392,
    "lat": 30.963,
    "address": "上海市奉贤区汇中西路29号",
    "type": "执行矫正",
    "label": "正常",
    "value": 390
  },
  {
    "time": "2018-01-23",
    "lng": 121.392,
    "lat": 30.963,
    "address": "上海市奉贤区汇中西路29号",
    "type": "执行矫正",
    "label": "正常",
    "value": 390
  },
  {
    "time": "2018-01-24",
    "lng": 121.392,
    "lat": 30.963,
    "address": "上海市奉贤区汇中西路29号",
    "type": "执行矫正",
    "label": "正常",
    "value": 390
  },
  {
    "time": "2018-03-08",
    "lng": 121.392,
    "lat": 30.963,
    "address": "上海市奉贤区汇中西路29号",
    "type": "执行矫正",
    "label": "正常",
    "value": 390
  },
  {
    "time": "2018-03-10",
    "lng": 121.392,
    "lat": 30.963,
    "address": "上海市奉贤区汇中西路29号",
    "type": "执行矫正",
    "label": "正常",
    "value": 390
  },
  {
    "time": "2018-03-05",
    "lng": 121.392,
    "lat": 30.963,
    "address": "中国上海市奉贤区汇中西路29号在邬桥耀光小区附近",
    "type": "执行矫正",
    "label": "正常",
    "value": 390
  },
  {
    "time": "2018-03-13",
    "lng": 121.392,
    "lat": 30.963,
    "address": "上海市奉贤区汇中西路29号",
    "type": "执行矫正",
    "label": "正常",
    "value": 390
  },
  {
    "time": "2018-01-18",
    "lng": 121.392,
    "lat": 30.963,
    "address": "上海市奉贤区汇中西路29号",
    "type": "执行矫正",
    "label": "正常",
    "value": 390
  },
  {
    "time": "2018-02-11",
    "lng": 121.392,
    "lat": 30.963,
    "address": "中国上海市奉贤区汇中西路29号在鸿运来餐厅附近",
    "type": "执行矫正",
    "label": "正常",
    "value": 390
  },
  {
    "time": "2018-03-17",
    "lng": 121.392,
    "lat": 30.963,
    "address": "中国上海市奉贤区汇中西路29号在鸿运来餐厅附近",
    "type": "执行矫正",
    "label": "正常",
    "value": 390
  },
  {
    "time": "2018-01-30",
    "lng": 121.392,
    "lat": 30.963,
    "address": "上海市奉贤区汇中西路29号",
    "type": "执行矫正",
    "label": "正常",
    "value": 390
  },
  {
    "time": "2018-03-12",
    "lng": 121.392,
    "lat": 30.963,
    "address": "上海市奉贤区汇中西路29号",
    "type": "执行矫正",
    "label": "正常",
    "value": 390
  },
  {
    "time": "2018-03-17",
    "lng": 121.392,
    "lat": 30.963,
    "address": "上海市奉贤区汇中西路29号",
    "type": "执行矫正",
    "label": "正常",
    "value": 390
  },
  {
    "time": "2018-02-18",
    "lng": 121.392,
    "lat": 30.963,
    "address": "上海市奉贤区汇中西路29号",
    "type": "执行矫正",
    "label": "正常",
    "value": 390
  },
  {
    "time": "2018-02-19",
    "lng": 121.392,
    "lat": 30.963,
    "address": "上海市奉贤区汇中西路29号",
    "type": "执行矫正",
    "label": "正常",
    "value": 390
  },
  {
    "time": "2018-02-12",
    "lng": 121.392,
    "lat": 30.963,
    "address": "上海市奉贤区汇中西路29号",
    "type": "执行矫正",
    "label": "正常",
    "value": 390
  },
  {
    "time": "2018-02-15",
    "lng": 121.392,
    "lat": 30.963,
    "address": "上海市奉贤区汇中西路29号",
    "type": "执行矫正",
    "label": "正常",
    "value": 390
  },
  {
    "time": "2018-02-17",
    "lng": 121.392,
    "lat": 30.963,
    "address": "上海市奉贤区汇中西路29号",
    "type": "执行矫正",
    "label": "正常",
    "value": 390
  },
  {
    "time": "2018-02-18",
    "lng": 121.392,
    "lat": 30.963,
    "address": "上海市奉贤区汇中西路29号",
    "type": "执行矫正",
    "label": "正常",
    "value": 390
  },
  {
    "time": "2018-02-19",
    "lng": 121.392,
    "lat": 30.963,
    "address": "上海市奉贤区汇中西路29号",
    "type": "执行矫正",
    "label": "正常",
    "value": 390
  },
  {
    "time": "2018-02-20",
    "lng": 121.392,
    "lat": 30.963,
    "address": "上海市奉贤区汇中西路29号",
    "type": "执行矫正",
    "label": "正常",
    "value": 390
  },
  {
    "time": "2018-02-21",
    "lng": 121.392,
    "lat": 30.963,
    "address": "上海市奉贤区汇中西路29号",
    "type": "执行矫正",
    "label": "正常",
    "value": 390
  },
  {
    "time": "2018-02-22",
    "lng": 121.392,
    "lat": 30.963,
    "address": "上海市奉贤区汇中西路29号",
    "type": "执行矫正",
    "label": "正常",
    "value": 390
  },
  {
    "time": "2018-02-23",
    "lng": 121.392,
    "lat": 30.963,
    "address": "上海市奉贤区汇中西路29号",
    "type": "执行矫正",
    "label": "正常",
    "value": 390
  },
  {
    "time": "2018-02-24",
    "lng": 121.392,
    "lat": 30.963,
    "address": "上海市奉贤区汇中西路29号",
    "type": "执行矫正",
    "label": "正常",
    "value": 390
  },
  {
    "time": "2018-02-25",
    "lng": 121.392,
    "lat": 30.963,
    "address": "上海市奉贤区汇中西路29号",
    "type": "执行矫正",
    "label": "正常",
    "value": 390
  },
  {
    "time": "2018-02-26",
    "lng": 121.392,
    "lat": 30.963,
    "address": "上海市奉贤区汇中西路29号",
    "type": "执行矫正",
    "label": "正常",
    "value": 390
  },
  {
    "time": "2018-02-27",
    "lng": 121.392,
    "lat": 30.963,
    "address": "上海市奉贤区汇中西路29号",
    "type": "执行矫正",
    "label": "正常",
    "value": 390
  },
  {
    "time": "2018-03-11",
    "lng": 121.392,
    "lat": 30.963,
    "address": "上海市奉贤区汇中西路29号",
    "type": "执行矫正",
    "label": "正常",
    "value": 390
  },
  {
    "time": "2018-03-13",
    "lng": 121.392,
    "lat": 30.963,
    "address": "上海市奉贤区汇中西路29号",
    "type": "执行矫正",
    "label": "正常",
    "value": 390
  },
  {
    "time": "2018-03-26",
    "lng": 121.392,
    "lat": 30.963,
    "address": "中国上海市奉贤区汇中西路29号在鸿运来餐厅附近",
    "type": "执行矫正",
    "label": "正常",
    "value": 390
  },
  {
    "time": "2018-02-25",
    "lng": 121.392,
    "lat": 30.963,
    "address": "中国上海市奉贤区汇中西路29号在鸿运来餐厅附近",
    "type": "执行矫正",
    "label": "正常",
    "value": 390
  },
  {
    "time": "2018-02-19",
    "lng": 121.392,
    "lat": 30.963,
    "address": "上海市奉贤区汇中西路29号",
    "type": "执行矫正",
    "label": "正常",
    "value": 390
  },
  {
    "time": "2018-03-26",
    "lng": 121.392,
    "lat": 30.963,
    "address": "中国上海市奉贤区汇中西路29号在鸿运来餐厅附近",
    "type": "执行矫正",
    "label": "正常",
    "value": 390
  },
  {
    "time": "2018-02-19",
    "lng": 121.392,
    "lat": 30.963,
    "address": "上海市奉贤区汇中西路29号",
    "type": "执行矫正",
    "label": "正常",
    "value": 390
  },
  {
    "time": "2018-01-31",
    "lng": 121.392,
    "lat": 30.963,
    "address": "上海市奉贤区汇中西路29号",
    "type": "执行矫正",
    "label": "正常",
    "value": 390
  },
  {
    "time": "2018-02-10",
    "lng": 121.392,
    "lat": 30.963,
    "address": "上海市奉贤区汇中西路29号",
    "type": "执行矫正",
    "label": "正常",
    "value": 390
  },
  {
    "time": "2018-02-11",
    "lng": 121.392,
    "lat": 30.963,
    "address": "上海市奉贤区汇中西路29号",
    "type": "执行矫正",
    "label": "正常",
    "value": 390
  },
  {
    "time": "2018-02-25",
    "lng": 121.392,
    "lat": 30.963,
    "address": "中国上海市奉贤区汇中西路29号在鸿运来餐厅附近",
    "type": "执行矫正",
    "label": "正常",
    "value": 390
  },
  {
    "time": "2018-02-06",
    "lng": 121.392,
    "lat": 30.963,
    "address": "上海市奉贤区汇中西路29号",
    "type": "执行矫正",
    "label": "正常",
    "value": 390
  },
  {
    "time": "2018-02-07",
    "lng": 121.392,
    "lat": 30.963,
    "address": "上海市奉贤区汇中西路29号",
    "type": "执行矫正",
    "label": "正常",
    "value": 390
  },
  {
    "time": "2018-03-29",
    "lng": 121.392,
    "lat": 30.963,
    "address": "上海市奉贤区汇中西路29号",
    "type": "执行矫正",
    "label": "正常",
    "value": 390
  },
  {
    "time": "2018-03-13",
    "lng": 121.392,
    "lat": 30.963,
    "address": "上海市奉贤区汇中西路29号",
    "type": "执行矫正",
    "label": "正常",
    "value": 390
  },
  {
    "time": "2018-01-24",
    "lng": 121.392,
    "lat": 30.963,
    "address": "上海市奉贤区汇中西路29号",
    "type": "执行矫正",
    "label": "正常",
    "value": 390
  },
  {
    "time": "2018-01-25",
    "lng": 121.392,
    "lat": 30.963,
    "address": "上海市奉贤区汇中西路29号",
    "type": "执行矫正",
    "label": "正常",
    "value": 390
  },
  {
    "time": "2018-03-05",
    "lng": 121.392,
    "lat": 30.963,
    "address": "上海市奉贤区汇中西路29号",
    "type": "执行矫正",
    "label": "正常",
    "value": 390
  },
  {
    "time": "2018-02-02",
    "lng": 121.392,
    "lat": 30.963,
    "address": "上海市奉贤区汇中西路29号",
    "type": "执行矫正",
    "label": "正常",
    "value": 390
  },
  {
    "time": "2018-05-26",
    "lng": 121.392,
    "lat": 30.963,
    "address": "中国上海市奉贤区汇中西路29号在邬桥耀光小区附近",
    "type": "执行矫正",
    "label": "正常",
    "value": 390
  },
  {
    "time": "2018-02-12",
    "lng": 121.392,
    "lat": 30.963,
    "address": "上海市奉贤区汇中西路29号",
    "type": "执行矫正",
    "label": "正常",
    "value": 390
  },
  {
    "time": "2018-05-26",
    "lng": 121.392,
    "lat": 30.963,
    "address": "中国上海市奉贤区汇中西路29号在邬桥耀光小区附近",
    "type": "执行矫正",
    "label": "正常",
    "value": 390
  },
  {
    "time": "2018-03-17",
    "lng": 121.392,
    "lat": 30.963,
    "address": "上海市奉贤区汇中西路29号",
    "type": "执行矫正",
    "label": "正常",
    "value": 390
  },
  {
    "time": "2018-03-18",
    "lng": 121.392,
    "lat": 30.963,
    "address": "上海市奉贤区汇中西路29号",
    "type": "执行矫正",
    "label": "正常",
    "value": 390
  },
  {
    "time": "2018-02-12",
    "lng": 121.392,
    "lat": 30.963,
    "address": "上海市奉贤区汇中西路29号",
    "type": "执行矫正",
    "label": "正常",
    "value": 390
  },
  {
    "time": "2018-01-31",
    "lng": 121.392,
    "lat": 30.963,
    "address": "上海市奉贤区汇中西路29号",
    "type": "执行矫正",
    "label": "正常",
    "value": 390
  },
  {
    "time": "2018-02-17",
    "lng": 121.392,
    "lat": 30.963,
    "address": "中国上海市奉贤区汇中西路29号在上海力宇液压机械有限公司-西北门附近",
    "type": "执行矫正",
    "label": "正常",
    "value": 390
  },
  {
    "time": "2018-01-17",
    "lng": 121.392,
    "lat": 30.963,
    "address": "上海市奉贤区汇中西路29号",
    "type": "执行矫正",
    "label": "正常",
    "value": 390
  },
  {
    "time": "2018-03-29",
    "lng": 121.392,
    "lat": 30.963,
    "address": "中国上海市奉贤区汇中西路29号在邬桥耀光小区附近",
    "type": "执行矫正",
    "label": "正常",
    "value": 390
  },
  {
    "time": "2018-02-17",
    "lng": 121.392,
    "lat": 30.963,
    "address": "中国上海市奉贤区汇中西路29号在上海力宇液压机械有限公司-西北门附近",
    "type": "执行矫正",
    "label": "正常",
    "value": 390
  },
  {
    "time": "2018-02-12",
    "lng": 121.392,
    "lat": 30.963,
    "address": "上海市奉贤区汇中西路29号",
    "type": "执行矫正",
    "label": "正常",
    "value": 390
  },
  {
    "time": "2018-03-29",
    "lng": 121.392,
    "lat": 30.963,
    "address": "上海市奉贤区汇中西路29号",
    "type": "执行矫正",
    "label": "正常",
    "value": 390
  },
  {
    "time": "2018-02-02",
    "lng": 121.392,
    "lat": 30.963,
    "address": "上海市奉贤区汇中西路29号",
    "type": "执行矫正",
    "label": "正常",
    "value": 390
  },
  {
    "time": "2018-02-12",
    "lng": 121.392,
    "lat": 30.963,
    "address": "上海市奉贤区汇中西路29号",
    "type": "执行矫正",
    "label": "正常",
    "value": 390
  },
  {
    "time": "2018-01-17",
    "lng": 121.392,
    "lat": 30.963,
    "address": "上海市奉贤区汇中西路29号",
    "type": "执行矫正",
    "label": "正常",
    "value": 390
  },
  {
    "time": "2018-02-07",
    "lng": 121.392,
    "lat": 30.963,
    "address": "上海市奉贤区汇中西路29号",
    "type": "执行矫正",
    "label": "正常",
    "value": 390
  },
  {
    "time": "2018-02-17",
    "lng": 121.392,
    "lat": 30.963,
    "address": "上海市奉贤区汇中西路29号",
    "type": "执行矫正",
    "label": "正常",
    "value": 390
  },
  {
    "time": "2018-02-15",
    "lng": 121.392,
    "lat": 30.963,
    "address": "上海市奉贤区汇中西路29号",
    "type": "执行矫正",
    "label": "正常",
    "value": 390
  },
  {
    "time": "2018-03-28",
    "lng": 121.392,
    "lat": 30.963,
    "address": "上海市奉贤区汇中西路29号",
    "type": "执行矫正",
    "label": "正常",
    "value": 390
  },
  {
    "time": "2018-02-04",
    "lng": 121.392,
    "lat": 30.963,
    "address": "上海市奉贤区汇中西路29号",
    "type": "执行矫正",
    "label": "正常",
    "value": 390
  },
  {
    "time": "2018-03-28",
    "lng": 121.392,
    "lat": 30.963,
    "address": "上海市奉贤区汇中西路29号",
    "type": "执行矫正",
    "label": "正常",
    "value": 390
  },
  {
    "time": "2018-03-29",
    "lng": 121.392,
    "lat": 30.963,
    "address": "上海市奉贤区汇中西路29号",
    "type": "执行矫正",
    "label": "正常",
    "value": 390
  },
  {
    "time": "2018-02-13",
    "lng": 121.392,
    "lat": 30.963,
    "address": "上海市奉贤区汇中西路29号",
    "type": "执行矫正",
    "label": "正常",
    "value": 390
  },
  {
    "time": "2018-03-20",
    "lng": 121.392,
    "lat": 30.963,
    "address": "中国上海市奉贤区汇中西路29号在邬桥耀光小区附近",
    "type": "执行矫正",
    "label": "正常",
    "value": 390
  },
  {
    "time": "2018-03-20",
    "lng": 121.392,
    "lat": 30.963,
    "address": "中国上海市奉贤区汇中西路29号在邬桥耀光小区附近",
    "type": "执行矫正",
    "label": "正常",
    "value": 390
  },
  {
    "time": "2018-02-18",
    "lng": 121.392,
    "lat": 30.963,
    "address": "上海市奉贤区汇中西路29号",
    "type": "执行矫正",
    "label": "正常",
    "value": 390
  },
  {
    "time": "2018-01-17",
    "lng": 121.392,
    "lat": 30.963,
    "address": "上海市奉贤区汇中西路29号",
    "type": "执行矫正",
    "label": "正常",
    "value": 390
  },
  {
    "time": "2018-02-15",
    "lng": 121.392,
    "lat": 30.963,
    "address": "上海市奉贤区汇中西路29号",
    "type": "执行矫正",
    "label": "正常",
    "value": 390
  },
  {
    "time": "2018-03-26",
    "lng": 121.392,
    "lat": 30.963,
    "address": "上海市奉贤区汇中西路29号",
    "type": "执行矫正",
    "label": "正常",
    "value": 390
  },
  {
    "time": "2018-03-01",
    "lng": 121.392,
    "lat": 30.963,
    "address": "中国上海市奉贤区汇中西路29号在上海力宇液压机械有限公司-西北门附近",
    "type": "执行矫正",
    "label": "正常",
    "value": 390
  },
  {
    "time": "2018-05-08",
    "lng": 121.392,
    "lat": 30.963,
    "address": "中国上海市奉贤区汇中西路29号在邬桥耀光小区附近",
    "type": "执行矫正",
    "label": "正常",
    "value": 390
  },
  {
    "time": "2018-01-17",
    "lng": 121.392,
    "lat": 30.963,
    "address": "上海市奉贤区汇中西路29号",
    "type": "执行矫正",
    "label": "正常",
    "value": 390
  },
  {
    "time": "2018-02-02",
    "lng": 121.392,
    "lat": 30.963,
    "address": "上海市奉贤区汇中西路29号",
    "type": "执行矫正",
    "label": "正常",
    "value": 390
  },
  {
    "time": "2018-02-03",
    "lng": 121.392,
    "lat": 30.963,
    "address": "上海市奉贤区汇中西路29号",
    "type": "执行矫正",
    "label": "正常",
    "value": 390
  },
  {
    "time": "2018-02-12",
    "lng": 121.392,
    "lat": 30.963,
    "address": "上海市奉贤区汇中西路29号",
    "type": "执行矫正",
    "label": "正常",
    "value": 390
  },
  {
    "time": "2018-02-12",
    "lng": 121.392,
    "lat": 30.963,
    "address": "中国上海市奉贤区汇中西路29号在上海力宇液压机械有限公司-西北门附近",
    "type": "执行矫正",
    "label": "正常",
    "value": 390
  },
  {
    "time": "2018-02-07",
    "lng": 121.392,
    "lat": 30.963,
    "address": "上海市奉贤区汇中西路29号",
    "type": "执行矫正",
    "label": "正常",
    "value": 390
  },
  {
    "time": "2018-03-26",
    "lng": 121.392,
    "lat": 30.963,
    "address": "上海市奉贤区汇中西路29号",
    "type": "执行矫正",
    "label": "正常",
    "value": 390
  },
  {
    "time": "2018-02-25",
    "lng": 121.392,
    "lat": 30.963,
    "address": "上海市奉贤区汇中西路29号",
    "type": "执行矫正",
    "label": "正常",
    "value": 390
  },
  {
    "time": "2018-01-30",
    "lng": 121.392,
    "lat": 30.963,
    "address": "上海市奉贤区汇中西路29号",
    "type": "执行矫正",
    "label": "正常",
    "value": 390
  },
  {
    "time": "2018-01-31",
    "lng": 121.392,
    "lat": 30.963,
    "address": "上海市奉贤区汇中西路29号",
    "type": "执行矫正",
    "label": "正常",
    "value": 390
  },
  {
    "time": "2018-02-12",
    "lng": 121.392,
    "lat": 30.963,
    "address": "中国上海市奉贤区汇中西路29号在上海力宇液压机械有限公司-西北门附近",
    "type": "执行矫正",
    "label": "正常",
    "value": 390
  },
  {
    "time": "2018-02-15",
    "lng": 121.392,
    "lat": 30.963,
    "address": "中国上海市奉贤区汇中西路29号在上海力宇液压机械有限公司-西北门附近",
    "type": "执行矫正",
    "label": "正常",
    "value": 390
  },
  {
    "time": "2018-03-05",
    "lng": 121.392,
    "lat": 30.963,
    "address": "上海市奉贤区汇中西路29号",
    "type": "执行矫正",
    "label": "正常",
    "value": 390
  },
  {
    "time": "2018-02-08",
    "lng": 121.392,
    "lat": 30.963,
    "address": "上海市奉贤区汇中西路29号",
    "type": "执行矫正",
    "label": "正常",
    "value": 390
  },
  {
    "time": "2018-02-15",
    "lng": 121.392,
    "lat": 30.963,
    "address": "中国上海市奉贤区汇中西路29号在上海力宇液压机械有限公司-西北门附近",
    "type": "执行矫正",
    "label": "正常",
    "value": 390
  },
  {
    "time": "2018-02-14",
    "lng": 121.392,
    "lat": 30.963,
    "address": "中国上海市奉贤区汇中西路29号在上海力宇液压机械有限公司-西北门附近",
    "type": "执行矫正",
    "label": "正常",
    "value": 390
  },
  {
    "time": "2018-02-17",
    "lng": 121.392,
    "lat": 30.963,
    "address": "中国上海市奉贤区汇中西路29号在上海力宇液压机械有限公司-西北门附近",
    "type": "执行矫正",
    "label": "正常",
    "value": 390
  },
  {
    "time": "2018-02-01",
    "lng": 121.392,
    "lat": 30.963,
    "address": "上海市奉贤区汇中西路29号",
    "type": "执行矫正",
    "label": "正常",
    "value": 390
  },
  {
    "time": "2018-02-14",
    "lng": 121.392,
    "lat": 30.963,
    "address": "中国上海市奉贤区汇中西路29号在上海力宇液压机械有限公司-西北门附近",
    "type": "执行矫正",
    "label": "正常",
    "value": 390
  },
  {
    "time": "2018-02-17",
    "lng": 121.392,
    "lat": 30.963,
    "address": "中国上海市奉贤区汇中西路29号在上海力宇液压机械有限公司-西北门附近",
    "type": "执行矫正",
    "label": "正常",
    "value": 390
  },
  {
    "time": "2018-01-17",
    "lng": 121.392,
    "lat": 30.963,
    "address": "上海市奉贤区汇中西路29号",
    "type": "执行矫正",
    "label": "正常",
    "value": 390
  },
  {
    "time": "2018-03-29",
    "lng": 121.392,
    "lat": 30.963,
    "address": "上海市奉贤区汇中西路29号",
    "type": "执行矫正",
    "label": "正常",
    "value": 390
  },
  {
    "time": "2018-03-29",
    "lng": 121.392,
    "lat": 30.963,
    "address": "上海市奉贤区汇中西路29号",
    "type": "执行矫正",
    "label": "正常",
    "value": 390
  },
  {
    "time": "2018-02-20",
    "lng": 121.392,
    "lat": 30.963,
    "address": "上海市奉贤区汇中西路29号",
    "type": "执行矫正",
    "label": "正常",
    "value": 390
  },
  {
    "time": "2018-02-26",
    "lng": 121.392,
    "lat": 30.963,
    "address": "上海市奉贤区汇中西路29号",
    "type": "执行矫正",
    "label": "正常",
    "value": 390
  },
  {
    "time": "2018-01-26",
    "lng": 121.392,
    "lat": 30.963,
    "address": "上海市奉贤区汇中西路29号",
    "type": "执行矫正",
    "label": "正常",
    "value": 390
  },
  {
    "time": "2018-01-17",
    "lng": 121.392,
    "lat": 30.963,
    "address": "上海市奉贤区汇中西路29号",
    "type": "执行矫正",
    "label": "正常",
    "value": 390
  },
  {
    "time": "2018-03-12",
    "lng": 121.392,
    "lat": 30.963,
    "address": "上海市奉贤区汇中西路29号",
    "type": "执行矫正",
    "label": "正常",
    "value": 390
  },
  {
    "time": "2018-02-20",
    "lng": 121.392,
    "lat": 30.963,
    "address": "中国上海市奉贤区汇中西路29号在上海力宇液压机械有限公司-西北门附近",
    "type": "执行矫正",
    "label": "正常",
    "value": 390
  },
  {
    "time": "2018-02-12",
    "lng": 121.392,
    "lat": 30.963,
    "address": "上海市奉贤区汇中西路29号",
    "type": "执行矫正",
    "label": "正常",
    "value": 390
  },
  {
    "time": "2018-02-21",
    "lng": 121.392,
    "lat": 30.963,
    "address": "中国上海市奉贤区汇中西路29号在上海力宇液压机械有限公司-西北门附近",
    "type": "执行矫正",
    "label": "正常",
    "value": 390
  },
  {
    "time": "2018-02-21",
    "lng": 121.392,
    "lat": 30.963,
    "address": "中国上海市奉贤区汇中西路29号在上海力宇液压机械有限公司-西北门附近",
    "type": "执行矫正",
    "label": "正常",
    "value": 390
  },
  {
    "time": "2018-02-18",
    "lng": 121.392,
    "lat": 30.963,
    "address": "中国上海市奉贤区汇中西路29号在上海力宇液压机械有限公司-西北门附近",
    "type": "执行矫正",
    "label": "正常",
    "value": 390
  },
  {
    "time": "2018-02-14",
    "lng": 121.392,
    "lat": 30.963,
    "address": "上海市奉贤区汇中西路29号",
    "type": "执行矫正",
    "label": "正常",
    "value": 390
  },
  {
    "time": "2018-02-13",
    "lng": 121.392,
    "lat": 30.963,
    "address": "中国上海市奉贤区汇中西路29号在邬桥耀光小区附近",
    "type": "执行矫正",
    "label": "正常",
    "value": 390
  },
  {
    "time": "2018-05-31",
    "lng": 121.392,
    "lat": 30.963,
    "address": "中国上海市奉贤区汇中西路29号在上海力宇液压机械有限公司-西北门附近",
    "type": "执行矫正",
    "label": "正常",
    "value": 390
  },
  {
    "time": "2018-02-13",
    "lng": 121.392,
    "lat": 30.963,
    "address": "中国上海市奉贤区汇中西路29号在邬桥耀光小区附近",
    "type": "执行矫正",
    "label": "正常",
    "value": 390
  },
  {
    "time": "2018-01-28",
    "lng": 121.392,
    "lat": 30.963,
    "address": "上海市奉贤区汇中西路29号",
    "type": "执行矫正",
    "label": "正常",
    "value": 390
  },
  {
    "time": "2018-02-22",
    "lng": 121.392,
    "lat": 30.963,
    "address": "中国上海市奉贤区汇中西路29号在上海力宇液压机械有限公司-西北门附近",
    "type": "执行矫正",
    "label": "正常",
    "value": 390
  },
  {
    "time": "2018-02-19",
    "lng": 121.392,
    "lat": 30.963,
    "address": "上海市奉贤区汇中西路29号",
    "type": "执行矫正",
    "label": "正常",
    "value": 390
  },
  {
    "time": "2018-03-04",
    "lng": 121.392,
    "lat": 30.963,
    "address": "中国上海市奉贤区汇中西路29号在邬桥耀光小区附近",
    "type": "执行矫正",
    "label": "正常",
    "value": 390
  },
  {
    "time": "2018-02-22",
    "lng": 121.392,
    "lat": 30.963,
    "address": "中国上海市奉贤区汇中西路29号在上海力宇液压机械有限公司-西北门附近",
    "type": "执行矫正",
    "label": "正常",
    "value": 390
  },
  {
    "time": "2018-02-23",
    "lng": 121.392,
    "lat": 30.963,
    "address": "中国上海市奉贤区汇中西路29号在上海力宇液压机械有限公司-西北门附近",
    "type": "执行矫正",
    "label": "正常",
    "value": 390
  },
  {
    "time": "2018-02-23",
    "lng": 121.392,
    "lat": 30.963,
    "address": "中国上海市奉贤区汇中西路29号在上海力宇液压机械有限公司-西北门附近",
    "type": "执行矫正",
    "label": "正常",
    "value": 390
  },
  {
    "time": "2018-02-12",
    "lng": 121.392,
    "lat": 30.963,
    "address": "上海市奉贤区汇中西路29号",
    "type": "执行矫正",
    "label": "正常",
    "value": 390
  },
  {
    "time": "2018-02-09",
    "lng": 121.392,
    "lat": 30.963,
    "address": "中国上海市奉贤区汇中西路29号在上海力宇液压机械有限公司-西北门附近",
    "type": "执行矫正",
    "label": "正常",
    "value": 390
  },
  {
    "time": "2018-02-13",
    "lng": 121.392,
    "lat": 30.963,
    "address": "中国上海市奉贤区汇中西路29号在上海力宇液压机械有限公司-西北门附近",
    "type": "执行矫正",
    "label": "正常",
    "value": 390
  },
  {
    "time": "2018-02-13",
    "lng": 121.392,
    "lat": 30.963,
    "address": "中国上海市奉贤区汇中西路29号在上海力宇液压机械有限公司-西北门附近",
    "type": "执行矫正",
    "label": "正常",
    "value": 390
  },
  {
    "time": "2018-02-12",
    "lng": 121.392,
    "lat": 30.963,
    "address": "上海市奉贤区汇中西路29号",
    "type": "执行矫正",
    "label": "正常",
    "value": 390
  },
  {
    "time": "2018-01-26",
    "lng": 121.392,
    "lat": 30.963,
    "address": "上海市奉贤区汇中西路29号",
    "type": "执行矫正",
    "label": "正常",
    "value": 390
  },
  {
    "time": "2018-02-09",
    "lng": 121.392,
    "lat": 30.963,
    "address": "上海市奉贤区汇中西路29号",
    "type": "执行矫正",
    "label": "正常",
    "value": 390
  },
  {
    "time": "2018-01-17",
    "lng": 121.392,
    "lat": 30.963,
    "address": "上海市奉贤区汇中西路29号",
    "type": "执行矫正",
    "label": "正常",
    "value": 390
  },
  {
    "time": "2018-01-17",
    "lng": 121.392,
    "lat": 30.963,
    "address": "上海市奉贤区汇中西路29号",
    "type": "执行矫正",
    "label": "正常",
    "value": 390
  },
  {
    "time": "2018-02-19",
    "lng": 121.392,
    "lat": 30.963,
    "address": "上海市奉贤区汇中西路29号",
    "type": "执行矫正",
    "label": "正常",
    "value": 390
  },
  {
    "time": "2018-03-26",
    "lng": 121.392,
    "lat": 30.963,
    "address": "上海市奉贤区汇中西路29号",
    "type": "执行矫正",
    "label": "正常",
    "value": 390
  },
  {
    "time": "2018-01-17",
    "lng": 121.392,
    "lat": 30.963,
    "address": "上海市奉贤区汇中西路29号",
    "type": "执行矫正",
    "label": "正常",
    "value": 390
  },
  {
    "time": "2018-01-17",
    "lng": 121.392,
    "lat": 30.963,
    "address": "上海市奉贤区汇中西路29号",
    "type": "执行矫正",
    "label": "正常",
    "value": 390
  },
  {
    "time": "2018-03-26",
    "lng": 121.392,
    "lat": 30.963,
    "address": "上海市奉贤区汇中西路29号",
    "type": "执行矫正",
    "label": "正常",
    "value": 390
  },
  {
    "time": "2018-02-27",
    "lng": 121.392,
    "lat": 30.963,
    "address": "上海市奉贤区汇中西路29号",
    "type": "执行矫正",
    "label": "正常",
    "value": 390
  },
  {
    "time": "2018-03-26",
    "lng": 121.392,
    "lat": 30.963,
    "address": "上海市奉贤区汇中西路29号",
    "type": "执行矫正",
    "label": "正常",
    "value": 390
  },
  {
    "time": "2018-02-07",
    "lng": 121.392,
    "lat": 30.963,
    "address": "上海市奉贤区汇中西路29号",
    "type": "执行矫正",
    "label": "正常",
    "value": 390
  },
  {
    "time": "2018-02-08",
    "lng": 121.392,
    "lat": 30.963,
    "address": "上海市奉贤区汇中西路29号",
    "type": "执行矫正",
    "label": "正常",
    "value": 390
  },
  {
    "time": "2018-03-27",
    "lng": 121.392,
    "lat": 30.963,
    "address": "上海市奉贤区汇中西路29号",
    "type": "执行矫正",
    "label": "正常",
    "value": 390
  },
  {
    "time": "2018-02-19",
    "lng": 121.392,
    "lat": 30.963,
    "address": "上海市奉贤区汇中西路29号",
    "type": "执行矫正",
    "label": "正常",
    "value": 390
  },
  {
    "time": "2018-02-14",
    "lng": 121.392,
    "lat": 30.963,
    "address": "中国上海市奉贤区汇中西路29号在上海力宇液压机械有限公司-西北门附近",
    "type": "执行矫正",
    "label": "正常",
    "value": 390
  },
  {
    "time": "2018-02-04",
    "lng": 121.392,
    "lat": 30.963,
    "address": "上海市奉贤区汇中西路29号",
    "type": "执行矫正",
    "label": "正常",
    "value": 390
  },
  {
    "time": "2018-02-05",
    "lng": 121.392,
    "lat": 30.963,
    "address": "上海市奉贤区汇中西路29号",
    "type": "执行矫正",
    "label": "正常",
    "value": 390
  },
  {
    "time": "2018-03-09",
    "lng": 121.392,
    "lat": 30.963,
    "address": "中国上海市奉贤区汇中西路29号在邬桥耀光小区附近",
    "type": "执行矫正",
    "label": "正常",
    "value": 390
  },
  {
    "time": "2018-02-14",
    "lng": 121.392,
    "lat": 30.963,
    "address": "中国上海市奉贤区汇中西路29号在上海力宇液压机械有限公司-西北门附近",
    "type": "执行矫正",
    "label": "正常",
    "value": 390
  },
  {
    "time": "2018-01-31",
    "lng": 121.392,
    "lat": 30.963,
    "address": "上海市奉贤区汇中西路29号",
    "type": "执行矫正",
    "label": "正常",
    "value": 390
  },
  {
    "time": "2018-02-09",
    "lng": 121.392,
    "lat": 30.963,
    "address": "上海市奉贤区汇中西路29号",
    "type": "执行矫正",
    "label": "正常",
    "value": 390
  },
  {
    "time": "2018-03-22",
    "lng": 121.392,
    "lat": 30.963,
    "address": "中国上海市奉贤区汇中西路29号在上海力宇液压机械有限公司-西北门附近",
    "type": "执行矫正",
    "label": "正常",
    "value": 390
  },
  {
    "time": "2018-02-19",
    "lng": 121.392,
    "lat": 30.963,
    "address": "上海市奉贤区汇中西路29号",
    "type": "执行矫正",
    "label": "正常",
    "value": 390
  },
  {
    "time": "2018-02-07",
    "lng": 121.392,
    "lat": 30.963,
    "address": "上海市奉贤区汇中西路29号",
    "type": "执行矫正",
    "label": "正常",
    "value": 390
  },
  {
    "time": "2018-02-08",
    "lng": 121.392,
    "lat": 30.963,
    "address": "上海市奉贤区汇中西路29号",
    "type": "执行矫正",
    "label": "正常",
    "value": 390
  },
  {
    "time": "2018-02-15",
    "lng": 121.392,
    "lat": 30.963,
    "address": "上海市奉贤区汇中西路29号",
    "type": "执行矫正",
    "label": "正常",
    "value": 390
  },
  {
    "time": "2018-02-19",
    "lng": 121.392,
    "lat": 30.963,
    "address": "上海市奉贤区汇中西路29号",
    "type": "执行矫正",
    "label": "正常",
    "value": 390
  },
  {
    "time": "2018-02-15",
    "lng": 121.392,
    "lat": 30.963,
    "address": "上海市奉贤区汇中西路29号",
    "type": "执行矫正",
    "label": "正常",
    "value": 390
  },
  {
    "time": "2018-02-26",
    "lng": 121.392,
    "lat": 30.963,
    "address": "上海市奉贤区汇中西路29号",
    "type": "执行矫正",
    "label": "正常",
    "value": 390
  },
  {
    "time": "2018-03-04",
    "lng": 121.392,
    "lat": 30.963,
    "address": "上海市奉贤区汇中西路29号",
    "type": "执行矫正",
    "label": "正常",
    "value": 390
  },
  {
    "time": "2018-02-27",
    "lng": 121.392,
    "lat": 30.963,
    "address": "上海市奉贤区汇中西路29号",
    "type": "执行矫正",
    "label": "正常",
    "value": 390
  },
  {
    "time": "2018-02-28",
    "lng": 121.392,
    "lat": 30.963,
    "address": "上海市奉贤区汇中西路29号",
    "type": "执行矫正",
    "label": "正常",
    "value": 390
  },
  {
    "time": "2018-03-01",
    "lng": 121.392,
    "lat": 30.963,
    "address": "上海市奉贤区汇中西路29号",
    "type": "执行矫正",
    "label": "正常",
    "value": 390
  },
  {
    "time": "2018-03-04",
    "lng": 121.392,
    "lat": 30.963,
    "address": "上海市奉贤区汇中西路29号",
    "type": "执行矫正",
    "label": "正常",
    "value": 390
  },
  {
    "time": "2018-02-12",
    "lng": 121.392,
    "lat": 30.963,
    "address": "上海市奉贤区汇中西路29号",
    "type": "执行矫正",
    "label": "正常",
    "value": 390
  },
  {
    "time": "2018-02-25",
    "lng": 121.392,
    "lat": 30.963,
    "address": "中国上海市奉贤区汇中西路29号在上海力宇液压机械有限公司-西北门附近",
    "type": "执行矫正",
    "label": "正常",
    "value": 390
  },
  {
    "time": "2018-03-30",
    "lng": 121.392,
    "lat": 30.963,
    "address": "上海市奉贤区汇中西路29号",
    "type": "执行矫正",
    "label": "正常",
    "value": 390
  },
  {
    "time": "2018-01-31",
    "lng": 121.392,
    "lat": 30.963,
    "address": "上海市奉贤区汇中西路29号",
    "type": "执行矫正",
    "label": "正常",
    "value": 390
  },
  {
    "time": "2018-01-17",
    "lng": 121.392,
    "lat": 30.963,
    "address": "上海市奉贤区汇中西路29号",
    "type": "执行矫正",
    "label": "正常",
    "value": 390
  },
  {
    "time": "2018-01-18",
    "lng": 121.392,
    "lat": 30.963,
    "address": "上海市奉贤区汇中西路29号",
    "type": "执行矫正",
    "label": "正常",
    "value": 390
  },
  {
    "time": "2018-01-19",
    "lng": 121.392,
    "lat": 30.963,
    "address": "上海市奉贤区汇中西路29号",
    "type": "执行矫正",
    "label": "正常",
    "value": 390
  },
  {
    "time": "2018-02-28",
    "lng": 121.392,
    "lat": 30.963,
    "address": "上海市奉贤区汇中西路29号",
    "type": "执行矫正",
    "label": "正常",
    "value": 390
  },
  {
    "time": "2018-03-01",
    "lng": 121.392,
    "lat": 30.963,
    "address": "上海市奉贤区汇中西路29号",
    "type": "执行矫正",
    "label": "正常",
    "value": 390
  },
  {
    "time": "2018-02-14",
    "lng": 121.392,
    "lat": 30.963,
    "address": "上海市奉贤区汇中西路29号",
    "type": "执行矫正",
    "label": "正常",
    "value": 390
  },
  {
    "time": "2018-03-01",
    "lng": 121.392,
    "lat": 30.963,
    "address": "上海市奉贤区汇中西路29号",
    "type": "执行矫正",
    "label": "正常",
    "value": 390
  },
  {
    "time": "2018-03-02",
    "lng": 121.392,
    "lat": 30.963,
    "address": "上海市奉贤区汇中西路29号",
    "type": "执行矫正",
    "label": "正常",
    "value": 390
  },
  {
    "time": "2018-03-03",
    "lng": 121.392,
    "lat": 30.963,
    "address": "上海市奉贤区汇中西路29号",
    "type": "执行矫正",
    "label": "正常",
    "value": 390
  },
  {
    "time": "2018-03-01",
    "lng": 121.392,
    "lat": 30.963,
    "address": "上海市奉贤区汇中西路29号",
    "type": "执行矫正",
    "label": "正常",
    "value": 390
  },
  {
    "time": "2018-01-26",
    "lng": 121.392,
    "lat": 30.963,
    "address": "上海市奉贤区汇中西路29号",
    "type": "执行矫正",
    "label": "正常",
    "value": 390
  },
  {
    "time": "2018-01-27",
    "lng": 121.392,
    "lat": 30.963,
    "address": "上海市奉贤区汇中西路29号",
    "type": "执行矫正",
    "label": "正常",
    "value": 390
  },
  {
    "time": "2018-03-02",
    "lng": 121.392,
    "lat": 30.963,
    "address": "上海市奉贤区汇中西路29号",
    "type": "执行矫正",
    "label": "正常",
    "value": 390
  },
  {
    "time": "2018-01-26",
    "lng": 121.392,
    "lat": 30.963,
    "address": "上海市奉贤区汇中西路29号",
    "type": "执行矫正",
    "label": "正常",
    "value": 390
  },
  {
    "time": "2018-01-24",
    "lng": 121.392,
    "lat": 30.963,
    "address": "上海市奉贤区汇中西路29号",
    "type": "执行矫正",
    "label": "正常",
    "value": 390
  },
  {
    "time": "2018-01-28",
    "lng": 121.392,
    "lat": 30.963,
    "address": "上海市奉贤区汇中西路29号",
    "type": "执行矫正",
    "label": "正常",
    "value": 390
  },
  {
    "time": "2018-01-29",
    "lng": 121.392,
    "lat": 30.963,
    "address": "上海市奉贤区汇中西路29号",
    "type": "执行矫正",
    "label": "正常",
    "value": 390
  },
  {
    "time": "2018-01-31",
    "lng": 121.392,
    "lat": 30.963,
    "address": "上海市奉贤区汇中西路29号",
    "type": "执行矫正",
    "label": "正常",
    "value": 390
  },
  {
    "time": "2018-02-01",
    "lng": 121.392,
    "lat": 30.963,
    "address": "上海市奉贤区汇中西路29号",
    "type": "执行矫正",
    "label": "正常",
    "value": 390
  },
  {
    "time": "2018-01-21",
    "lng": 121.392,
    "lat": 30.963,
    "address": "上海市奉贤区汇中西路29号",
    "type": "执行矫正",
    "label": "正常",
    "value": 390
  },
  {
    "time": "2018-01-17",
    "lng": 121.392,
    "lat": 30.963,
    "address": "上海市奉贤区汇中西路29号",
    "type": "执行矫正",
    "label": "正常",
    "value": 390
  },
  {
    "time": "2018-01-19",
    "lng": 121.392,
    "lat": 30.963,
    "address": "上海市奉贤区汇中西路29号",
    "type": "执行矫正",
    "label": "正常",
    "value": 390
  },
  {
    "time": "2018-01-20",
    "lng": 121.392,
    "lat": 30.963,
    "address": "上海市奉贤区汇中西路29号",
    "type": "执行矫正",
    "label": "正常",
    "value": 390
  },
  {
    "time": "2018-01-21",
    "lng": 121.392,
    "lat": 30.963,
    "address": "上海市奉贤区汇中西路29号",
    "type": "执行矫正",
    "label": "正常",
    "value": 390
  },
  {
    "time": "2018-01-22",
    "lng": 121.392,
    "lat": 30.963,
    "address": "上海市奉贤区汇中西路29号",
    "type": "执行矫正",
    "label": "正常",
    "value": 390
  },
  {
    "time": "2018-01-29",
    "lng": 121.392,
    "lat": 30.963,
    "address": "上海市奉贤区汇中西路29号",
    "type": "执行矫正",
    "label": "正常",
    "value": 390
  },
  {
    "time": "2018-01-30",
    "lng": 121.392,
    "lat": 30.963,
    "address": "上海市奉贤区汇中西路29号",
    "type": "执行矫正",
    "label": "正常",
    "value": 390
  },
  {
    "time": "2018-03-01",
    "lng": 121.392,
    "lat": 30.963,
    "address": "中国上海市奉贤区汇中西路29号在上海力宇液压机械有限公司-西北门附近",
    "type": "执行矫正",
    "label": "正常",
    "value": 390
  },
  {
    "time": "2018-02-28",
    "lng": 121.392,
    "lat": 30.963,
    "address": "中国上海市奉贤区汇中西路29号在邬桥耀光小区附近",
    "type": "执行矫正",
    "label": "正常",
    "value": 390
  },
  {
    "time": "2018-02-09",
    "lng": 121.392,
    "lat": 30.963,
    "address": "中国上海市奉贤区汇中西路29号在上海力宇液压机械有限公司-西北门附近",
    "type": "执行矫正",
    "label": "正常",
    "value": 390
  },
  {
    "time": "2018-03-26",
    "lng": 121.392,
    "lat": 30.963,
    "address": "上海市奉贤区汇中西路29号",
    "type": "执行矫正",
    "label": "正常",
    "value": 390
  },
  {
    "time": "2018-01-23",
    "lng": 121.392,
    "lat": 30.963,
    "address": "上海市奉贤区汇中西路29号",
    "type": "执行矫正",
    "label": "正常",
    "value": 390
  },
  {
    "time": "2018-01-31",
    "lng": 121.392,
    "lat": 30.963,
    "address": "上海市奉贤区汇中西路29号",
    "type": "执行矫正",
    "label": "正常",
    "value": 390
  },
  {
    "time": "2018-02-14",
    "lng": 121.392,
    "lat": 30.963,
    "address": "上海市奉贤区汇中西路29号",
    "type": "执行矫正",
    "label": "正常",
    "value": 390
  },
  {
    "time": "2018-03-24",
    "lng": 121.392,
    "lat": 30.963,
    "address": "上海市奉贤区汇中西路29号",
    "type": "执行矫正",
    "label": "正常",
    "value": 390
  },
  {
    "time": "2018-01-31",
    "lng": 121.392,
    "lat": 30.963,
    "address": "上海市奉贤区汇中西路29号",
    "type": "执行矫正",
    "label": "正常",
    "value": 390
  },
  {
    "time": "2018-02-28",
    "lng": 121.392,
    "lat": 30.963,
    "address": "中国上海市奉贤区汇中西路29号在邬桥耀光小区附近",
    "type": "执行矫正",
    "label": "正常",
    "value": 390
  },
  {
    "time": "2018-03-01",
    "lng": 121.392,
    "lat": 30.963,
    "address": "上海市奉贤区汇中西路29号",
    "type": "执行矫正",
    "label": "正常",
    "value": 390
  },
  {
    "time": "2018-03-27",
    "lng": 121.392,
    "lat": 30.963,
    "address": "上海市奉贤区汇中西路29号",
    "type": "执行矫正",
    "label": "正常",
    "value": 390
  },
  {
    "time": "2018-03-28",
    "lng": 121.392,
    "lat": 30.963,
    "address": "上海市奉贤区汇中西路29号",
    "type": "执行矫正",
    "label": "正常",
    "value": 390
  },
  {
    "time": "2018-02-09",
    "lng": 121.392,
    "lat": 30.963,
    "address": "上海市奉贤区汇中西路29号",
    "type": "执行矫正",
    "label": "正常",
    "value": 390
  },
  {
    "time": "2018-03-02",
    "lng": 121.392,
    "lat": 30.963,
    "address": "上海市奉贤区汇中西路29号",
    "type": "执行矫正",
    "label": "正常",
    "value": 390
  },
  {
    "time": "2018-03-04",
    "lng": 121.392,
    "lat": 30.963,
    "address": "上海市奉贤区汇中西路29号",
    "type": "执行矫正",
    "label": "正常",
    "value": 390
  },
  {
    "time": "2018-02-08",
    "lng": 121.392,
    "lat": 30.963,
    "address": "上海市奉贤区汇中西路29号",
    "type": "执行矫正",
    "label": "正常",
    "value": 390
  },
  {
    "time": "2018-03-19",
    "lng": 121.392,
    "lat": 30.963,
    "address": "上海市奉贤区汇中西路29号",
    "type": "执行矫正",
    "label": "正常",
    "value": 390
  },
  {
    "time": "2018-02-15",
    "lng": 121.392,
    "lat": 30.963,
    "address": "上海市奉贤区汇中西路29号",
    "type": "执行矫正",
    "label": "正常",
    "value": 390
  },
  {
    "time": "2018-03-29",
    "lng": 121.392,
    "lat": 30.963,
    "address": "中国上海市奉贤区汇中西路29号在上海力宇液压机械有限公司-西北门附近",
    "type": "执行矫正",
    "label": "正常",
    "value": 390
  },
  {
    "time": "2018-02-12",
    "lng": 121.392,
    "lat": 30.963,
    "address": "上海市奉贤区汇中西路29号",
    "type": "执行矫正",
    "label": "正常",
    "value": 390
  },
  {
    "time": "2018-03-19",
    "lng": 121.392,
    "lat": 30.963,
    "address": "上海市奉贤区汇中西路29号",
    "type": "执行矫正",
    "label": "正常",
    "value": 390
  },
  {
    "time": "2018-03-20",
    "lng": 121.392,
    "lat": 30.963,
    "address": "上海市奉贤区汇中西路29号",
    "type": "执行矫正",
    "label": "正常",
    "value": 390
  },
  {
    "time": "2018-03-24",
    "lng": 121.392,
    "lat": 30.963,
    "address": "上海市奉贤区汇中西路29号",
    "type": "执行矫正",
    "label": "正常",
    "value": 390
  },
  {
    "time": "2018-02-10",
    "lng": 121.392,
    "lat": 30.963,
    "address": "上海市奉贤区汇中西路29号",
    "type": "执行矫正",
    "label": "正常",
    "value": 390
  },
  {
    "time": "2018-03-01",
    "lng": 121.392,
    "lat": 30.963,
    "address": "上海市奉贤区汇中西路29号",
    "type": "执行矫正",
    "label": "正常",
    "value": 390
  },
  {
    "time": "2018-03-02",
    "lng": 121.392,
    "lat": 30.963,
    "address": "上海市奉贤区汇中西路29号",
    "type": "执行矫正",
    "label": "正常",
    "value": 390
  },
  {
    "time": "2018-02-12",
    "lng": 121.392,
    "lat": 30.963,
    "address": "上海市奉贤区汇中西路29号",
    "type": "执行矫正",
    "label": "正常",
    "value": 390
  },
  {
    "time": "2018-03-29",
    "lng": 121.392,
    "lat": 30.963,
    "address": "上海市奉贤区汇中西路29号",
    "type": "执行矫正",
    "label": "正常",
    "value": 390
  },
  {
    "time": "2018-03-30",
    "lng": 121.392,
    "lat": 30.963,
    "address": "上海市奉贤区汇中西路29号",
    "type": "执行矫正",
    "label": "正常",
    "value": 390
  },
  {
    "time": "2018-03-04",
    "lng": 121.392,
    "lat": 30.963,
    "address": "上海市奉贤区汇中西路29号",
    "type": "执行矫正",
    "label": "正常",
    "value": 390
  },
  {
    "time": "2018-03-05",
    "lng": 121.392,
    "lat": 30.963,
    "address": "上海市奉贤区汇中西路29号",
    "type": "执行矫正",
    "label": "正常",
    "value": 390
  },
  {
    "time": "2018-05-24",
    "lng": 121.392,
    "lat": 30.963,
    "address": "中国上海市奉贤区汇中西路29号在邬桥耀光小区附近",
    "type": "执行矫正",
    "label": "正常",
    "value": 390
  },
  {
    "time": "2018-01-31",
    "lng": 121.392,
    "lat": 30.963,
    "address": "上海市奉贤区汇中西路29号",
    "type": "执行矫正",
    "label": "正常",
    "value": 390
  },
  {
    "time": "2018-05-24",
    "lng": 121.392,
    "lat": 30.963,
    "address": "中国上海市奉贤区汇中西路29号在邬桥耀光小区附近",
    "type": "执行矫正",
    "label": "正常",
    "value": 390
  },
  {
    "time": "2018-03-26",
    "lng": 121.392,
    "lat": 30.963,
    "address": "上海市奉贤区汇中西路29号",
    "type": "执行矫正",
    "label": "正常",
    "value": 390
  },
  {
    "time": "2018-03-11",
    "lng": 121.392,
    "lat": 30.963,
    "address": "中国上海市奉贤区汇中西路29号在上海力宇液压机械有限公司-西北门附近",
    "type": "执行矫正",
    "label": "正常",
    "value": 390
  },
  {
    "time": "2018-03-26",
    "lng": 121.392,
    "lat": 30.963,
    "address": "上海市奉贤区汇中西路29号",
    "type": "执行矫正",
    "label": "正常",
    "value": 390
  },
  {
    "time": "2018-01-17",
    "lng": 121.392,
    "lat": 30.963,
    "address": "上海市奉贤区汇中西路29号",
    "type": "执行矫正",
    "label": "正常",
    "value": 390
  },
  {
    "time": "2018-03-24",
    "lng": 121.392,
    "lat": 30.963,
    "address": "上海市奉贤区汇中西路29号",
    "type": "执行矫正",
    "label": "正常",
    "value": 390
  },
  {
    "time": "2018-03-25",
    "lng": 121.392,
    "lat": 30.963,
    "address": "上海市奉贤区汇中西路29号",
    "type": "执行矫正",
    "label": "正常",
    "value": 390
  },
  {
    "time": "2018-03-02",
    "lng": 121.392,
    "lat": 30.963,
    "address": "上海市奉贤区汇中西路29号",
    "type": "执行矫正",
    "label": "正常",
    "value": 390
  },
  {
    "time": "2018-03-01",
    "lng": 121.392,
    "lat": 30.963,
    "address": "中国上海市奉贤区汇中西路29号在邬桥耀光小区附近",
    "type": "执行矫正",
    "label": "正常",
    "value": 390
  },
  {
    "time": "2018-03-13",
    "lng": 121.392,
    "lat": 30.963,
    "address": "中国上海市奉贤区汇中西路29号在上海力宇液压机械有限公司-西北门附近",
    "type": "执行矫正",
    "label": "正常",
    "value": 390
  },
  {
    "time": "2018-02-08",
    "lng": 121.392,
    "lat": 30.963,
    "address": "中国上海市奉贤区汇中西路29号在上海力宇液压机械有限公司-西北门附近",
    "type": "执行矫正",
    "label": "正常",
    "value": 390
  },
  {
    "time": "2018-02-08",
    "lng": 121.392,
    "lat": 30.963,
    "address": "中国上海市奉贤区汇中西路29号在上海力宇液压机械有限公司-西北门附近",
    "type": "执行矫正",
    "label": "正常",
    "value": 390
  },
  {
    "time": "2018-03-01",
    "lng": 121.392,
    "lat": 30.963,
    "address": "上海市奉贤区汇中西路29号",
    "type": "执行矫正",
    "label": "正常",
    "value": 390
  },
  {
    "time": "2018-01-31",
    "lng": 121.392,
    "lat": 30.963,
    "address": "上海市奉贤区汇中西路29号",
    "type": "执行矫正",
    "label": "正常",
    "value": 390
  },
  {
    "time": "2018-03-28",
    "lng": 121.392,
    "lat": 30.963,
    "address": "中国上海市奉贤区汇中西路29号在上海力宇液压机械有限公司-西北门附近",
    "type": "执行矫正",
    "label": "正常",
    "value": 390
  },
  {
    "time": "2018-03-28",
    "lng": 121.392,
    "lat": 30.963,
    "address": "中国上海市奉贤区汇中西路29号在上海力宇液压机械有限公司-西北门附近",
    "type": "执行矫正",
    "label": "正常",
    "value": 390
  },
  {
    "time": "2018-03-24",
    "lng": 121.392,
    "lat": 30.963,
    "address": "中国上海市奉贤区汇中西路29号在上海力宇液压机械有限公司-西北门附近",
    "type": "执行矫正",
    "label": "正常",
    "value": 390
  },
  {
    "time": "2018-03-30",
    "lng": 121.392,
    "lat": 30.963,
    "address": "上海市奉贤区汇中西路29号",
    "type": "执行矫正",
    "label": "正常",
    "value": 390
  },
  {
    "time": "2018-03-31",
    "lng": 121.392,
    "lat": 30.963,
    "address": "上海市奉贤区汇中西路29号",
    "type": "执行矫正",
    "label": "正常",
    "value": 390
  },
  {
    "time": "2018-03-24",
    "lng": 121.392,
    "lat": 30.963,
    "address": "中国上海市奉贤区汇中西路29号在上海力宇液压机械有限公司-西北门附近",
    "type": "执行矫正",
    "label": "正常",
    "value": 390
  },
  {
    "time": "2018-02-19",
    "lng": 121.392,
    "lat": 30.963,
    "address": "中国上海市奉贤区汇中西路29号在邬桥耀光小区附近",
    "type": "执行矫正",
    "label": "正常",
    "value": 390
  },
  {
    "time": "2018-02-24",
    "lng": 121.392,
    "lat": 30.963,
    "address": "中国上海市奉贤区汇中西路29号在上海力宇液压机械有限公司-西北门附近",
    "type": "执行矫正",
    "label": "正常",
    "value": 390
  },
  {
    "time": "2018-03-11",
    "lng": 121.392,
    "lat": 30.963,
    "address": "中国上海市奉贤区汇中西路29号在上海力宇液压机械有限公司-西北门附近",
    "type": "执行矫正",
    "label": "正常",
    "value": 390
  },
  {
    "time": "2018-03-26",
    "lng": 121.392,
    "lat": 30.963,
    "address": "上海市奉贤区汇中西路29号",
    "type": "执行矫正",
    "label": "正常",
    "value": 390
  },
  {
    "time": "2018-03-19",
    "lng": 121.392,
    "lat": 30.963,
    "address": "上海市奉贤区汇中西路29号",
    "type": "执行矫正",
    "label": "正常",
    "value": 390
  },
  {
    "time": "2018-02-24",
    "lng": 121.392,
    "lat": 30.963,
    "address": "中国上海市奉贤区汇中西路29号在上海力宇液压机械有限公司-西北门附近",
    "type": "执行矫正",
    "label": "正常",
    "value": 390
  },
  {
    "time": "2018-05-16",
    "lng": 121.392,
    "lat": 30.963,
    "address": "中国上海市奉贤区汇中西路29号在上海力宇液压机械有限公司-西北门附近",
    "type": "执行矫正",
    "label": "正常",
    "value": 390
  },
  {
    "time": "2018-03-16",
    "lng": 121.392,
    "lat": 30.963,
    "address": "中国上海市奉贤区汇中西路29号在上海力宇液压机械有限公司-西北门附近",
    "type": "执行矫正",
    "label": "正常",
    "value": 390
  },
  {
    "time": "2018-03-26",
    "lng": 121.392,
    "lat": 30.963,
    "address": "上海市奉贤区汇中西路29号",
    "type": "执行矫正",
    "label": "正常",
    "value": 390
  },
  {
    "time": "2018-02-08",
    "lng": 121.392,
    "lat": 30.963,
    "address": "上海市奉贤区汇中西路29号",
    "type": "执行矫正",
    "label": "正常",
    "value": 390
  },
  {
    "time": "2018-05-14",
    "lng": 121.392,
    "lat": 30.963,
    "address": "中国上海市奉贤区汇中西路29号在上海力宇液压机械有限公司-西北门附近",
    "type": "执行矫正",
    "label": "正常",
    "value": 390
  },
  {
    "time": "2018-03-01",
    "lng": 121.392,
    "lat": 30.963,
    "address": "上海市奉贤区汇中西路29号",
    "type": "执行矫正",
    "label": "正常",
    "value": 390
  },
  {
    "time": "2018-02-02",
    "lng": 121.392,
    "lat": 30.963,
    "address": "上海市奉贤区汇中西路29号",
    "type": "执行矫正",
    "label": "正常",
    "value": 390
  },
  {
    "time": "2018-03-01",
    "lng": 121.392,
    "lat": 30.963,
    "address": "中国上海市奉贤区汇中西路29号在上海力宇液压机械有限公司-西北门附近",
    "type": "执行矫正",
    "label": "正常",
    "value": 390
  },
  {
    "time": "2018-05-14",
    "lng": 121.392,
    "lat": 30.963,
    "address": "中国上海市奉贤区汇中西路29号在上海力宇液压机械有限公司-西北门附近",
    "type": "执行矫正",
    "label": "正常",
    "value": 390
  },
  {
    "time": "2018-02-14",
    "lng": 121.392,
    "lat": 30.963,
    "address": "上海市奉贤区汇中西路29号",
    "type": "执行矫正",
    "label": "正常",
    "value": 390
  },
  {
    "time": "2018-03-26",
    "lng": 121.392,
    "lat": 30.963,
    "address": "上海市奉贤区汇中西路29号",
    "type": "执行矫正",
    "label": "正常",
    "value": 390
  },
  {
    "time": "2018-03-26",
    "lng": 121.392,
    "lat": 30.963,
    "address": "上海市奉贤区汇中西路29号",
    "type": "执行矫正",
    "label": "正常",
    "value": 390
  },
  {
    "time": "2018-03-04",
    "lng": 121.392,
    "lat": 30.963,
    "address": "中国上海市奉贤区汇中西路29号在上海力宇液压机械有限公司-西北门附近",
    "type": "执行矫正",
    "label": "正常",
    "value": 390
  },
  {
    "time": "2018-05-07",
    "lng": 121.392,
    "lat": 30.963,
    "address": "中国上海市奉贤区汇中西路29号在上海力宇液压机械有限公司-西北门附近",
    "type": "执行矫正",
    "label": "正常",
    "value": 390
  },
  {
    "time": "2018-03-26",
    "lng": 121.392,
    "lat": 30.963,
    "address": "上海市奉贤区汇中西路29号",
    "type": "执行矫正",
    "label": "正常",
    "value": 390
  },
  {
    "time": "2018-05-27",
    "lng": 121.392,
    "lat": 30.963,
    "address": "中国上海市奉贤区汇中西路29号在上海力宇液压机械有限公司-西北门附近",
    "type": "执行矫正",
    "label": "正常",
    "value": 390
  },
  {
    "time": "2018-01-31",
    "lng": 121.392,
    "lat": 30.963,
    "address": "上海市奉贤区汇中西路29号",
    "type": "执行矫正",
    "label": "正常",
    "value": 390
  },
  {
    "time": "2018-05-10",
    "lng": 121.392,
    "lat": 30.963,
    "address": "中国上海市奉贤区汇中西路29号在上海力宇液压机械有限公司-西北门附近",
    "type": "执行矫正",
    "label": "正常",
    "value": 390
  },
  {
    "time": "2018-03-01",
    "lng": 121.392,
    "lat": 30.963,
    "address": "上海市奉贤区汇中西路29号",
    "type": "执行矫正",
    "label": "正常",
    "value": 390
  },
  {
    "time": "2018-05-27",
    "lng": 121.392,
    "lat": 30.963,
    "address": "中国上海市奉贤区汇中西路29号在邬桥耀光小区附近",
    "type": "执行矫正",
    "label": "正常",
    "value": 390
  },
  {
    "time": "2018-03-20",
    "lng": 121.392,
    "lat": 30.963,
    "address": "中国上海市奉贤区汇中西路29号在上海力宇液压机械有限公司-西北门附近",
    "type": "执行矫正",
    "label": "正常",
    "value": 390
  },
  {
    "time": "2018-03-20",
    "lng": 121.392,
    "lat": 30.963,
    "address": "中国上海市奉贤区汇中西路29号在上海力宇液压机械有限公司-西北门附近",
    "type": "执行矫正",
    "label": "正常",
    "value": 390
  },
  {
    "time": "2018-03-05",
    "lng": 121.392,
    "lat": 30.963,
    "address": "中国上海市奉贤区汇中西路29号在上海力宇液压机械有限公司-西北门附近",
    "type": "执行矫正",
    "label": "正常",
    "value": 390
  },
  {
    "time": "2018-02-12",
    "lng": 121.392,
    "lat": 30.963,
    "address": "中国上海市奉贤区汇中西路29号在上海力宇液压机械有限公司-西北门附近",
    "type": "执行矫正",
    "label": "正常",
    "value": 390
  },
  {
    "time": "2018-03-05",
    "lng": 121.392,
    "lat": 30.963,
    "address": "中国上海市奉贤区汇中西路29号在上海力宇液压机械有限公司-西北门附近",
    "type": "执行矫正",
    "label": "正常",
    "value": 390
  },
  {
    "time": "2018-02-12",
    "lng": 121.392,
    "lat": 30.963,
    "address": "中国上海市奉贤区汇中西路29号在上海力宇液压机械有限公司-西北门附近",
    "type": "执行矫正",
    "label": "正常",
    "value": 390
  },
  {
    "time": "2018-02-16",
    "lng": 121.392,
    "lat": 30.963,
    "address": "中国上海市奉贤区汇中西路29号在上海力宇液压机械有限公司-西北门附近",
    "type": "执行矫正",
    "label": "正常",
    "value": 390
  },
  {
    "time": "2018-05-15",
    "lng": 121.392,
    "lat": 30.963,
    "address": "中国上海市奉贤区汇中西路29号在上海力宇液压机械有限公司-西北门附近",
    "type": "执行矫正",
    "label": "正常",
    "value": 390
  },
  {
    "time": "2018-03-09",
    "lng": 121.392,
    "lat": 30.963,
    "address": "中国上海市奉贤区汇中西路29号在邬桥耀光小区附近",
    "type": "执行矫正",
    "label": "正常",
    "value": 390
  },
  {
    "time": "2018-05-27",
    "lng": 121.392,
    "lat": 30.963,
    "address": "中国上海市奉贤区汇中西路29号在上海力宇液压机械有限公司-西北门附近",
    "type": "执行矫正",
    "label": "正常",
    "value": 390
  },
  {
    "time": "2018-03-06",
    "lng": 121.392,
    "lat": 30.963,
    "address": "中国上海市奉贤区汇中西路29号在上海力宇液压机械有限公司-西北门附近",
    "type": "执行矫正",
    "label": "正常",
    "value": 390
  },
  {
    "time": "2018-05-27",
    "lng": 121.392,
    "lat": 30.963,
    "address": "中国上海市奉贤区汇中西路29号在上海力宇液压机械有限公司-西北门附近",
    "type": "执行矫正",
    "label": "正常",
    "value": 390
  },
  {
    "time": "2018-03-06",
    "lng": 121.392,
    "lat": 30.963,
    "address": "中国上海市奉贤区汇中西路29号在上海力宇液压机械有限公司-西北门附近",
    "type": "执行矫正",
    "label": "正常",
    "value": 390
  },
  {
    "time": "2018-03-26",
    "lng": 121.392,
    "lat": 30.963,
    "address": "中国上海市奉贤区汇中西路29号在上海力宇液压机械有限公司-西北门附近",
    "type": "执行矫正",
    "label": "正常",
    "value": 390
  },
  {
    "time": "2018-03-11",
    "lng": 121.392,
    "lat": 30.963,
    "address": "中国上海市奉贤区汇中西路29号在上海力宇液压机械有限公司-西北门附近",
    "type": "执行矫正",
    "label": "正常",
    "value": 390
  },
  {
    "time": "2018-03-26",
    "lng": 121.392,
    "lat": 30.963,
    "address": "中国上海市奉贤区汇中西路29号在上海力宇液压机械有限公司-西北门附近",
    "type": "执行矫正",
    "label": "正常",
    "value": 390
  },
  {
    "time": "2018-03-03",
    "lng": 121.392,
    "lat": 30.963,
    "address": "中国上海市奉贤区汇中西路29号在上海力宇液压机械有限公司-西北门附近",
    "type": "执行矫正",
    "label": "正常",
    "value": 390
  },
  {
    "time": "2018-03-19",
    "lng": 121.392,
    "lat": 30.963,
    "address": "中国上海市奉贤区汇中西路29号在云鹿塑料制品有限公司附近",
    "type": "执行矫正",
    "label": "正常",
    "value": 390
  },
  {
    "time": "2018-03-19",
    "lng": 121.392,
    "lat": 30.963,
    "address": "中国上海市奉贤区汇中西路29号在云鹿塑料制品有限公司附近",
    "type": "执行矫正",
    "label": "正常",
    "value": 390
  },
  {
    "time": "2018-02-20",
    "lng": 121.392,
    "lat": 30.963,
    "address": "中国上海市奉贤区汇中西路29号在上海力宇液压机械有限公司-西北门附近",
    "type": "执行矫正",
    "label": "正常",
    "value": 390
  },
  {
    "time": "2018-02-04",
    "lng": 121.392,
    "lat": 30.963,
    "address": "上海市奉贤区汇中西路29号",
    "type": "执行矫正",
    "label": "正常",
    "value": 390
  },
  {
    "time": "2018-01-24",
    "lng": 121.392,
    "lat": 30.963,
    "address": "上海市奉贤区汇中西路29号",
    "type": "执行矫正",
    "label": "正常",
    "value": 390
  },
  {
    "time": "2018-05-09",
    "lng": 121.392,
    "lat": 30.963,
    "address": "中国上海市奉贤区汇中西路29号在云鹿塑料制品有限公司附近",
    "type": "执行矫正",
    "label": "正常",
    "value": 390
  },
  {
    "time": "2018-03-21",
    "lng": 121.392,
    "lat": 30.963,
    "address": "中国上海市奉贤区汇中西路29号在云鹿塑料制品有限公司附近",
    "type": "执行矫正",
    "label": "正常",
    "value": 390
  },
  {
    "time": "2018-05-05",
    "lng": 121.392,
    "lat": 30.963,
    "address": "中国上海市奉贤区汇中西路29号在云鹿塑料制品有限公司附近",
    "type": "执行矫正",
    "label": "正常",
    "value": 390
  },
  {
    "time": "2018-02-02",
    "lng": 121.392,
    "lat": 30.963,
    "address": "上海市奉贤区汇中西路29号",
    "type": "执行矫正",
    "label": "正常",
    "value": 390
  },
  {
    "time": "2018-03-21",
    "lng": 121.392,
    "lat": 30.963,
    "address": "中国上海市奉贤区汇中西路29号在云鹿塑料制品有限公司附近",
    "type": "执行矫正",
    "label": "正常",
    "value": 390
  },
  {
    "time": "2018-03-08",
    "lng": 121.392,
    "lat": 30.963,
    "address": "中国上海市奉贤区汇中西路29号在上海力宇液压机械有限公司-西北门附近",
    "type": "执行矫正",
    "label": "正常",
    "value": 390
  },
  {
    "time": "2018-05-05",
    "lng": 121.392,
    "lat": 30.963,
    "address": "中国上海市奉贤区汇中西路29号在云鹿塑料制品有限公司附近",
    "type": "执行矫正",
    "label": "正常",
    "value": 390
  },
  {
    "time": "2018-02-21",
    "lng": 121.392,
    "lat": 30.963,
    "address": "中国上海市奉贤区汇中西路29号在上海力宇液压机械有限公司-西北门附近",
    "type": "执行矫正",
    "label": "正常",
    "value": 390
  },
  {
    "time": "2018-05-09",
    "lng": 121.392,
    "lat": 30.963,
    "address": "中国上海市奉贤区汇中西路29号在云鹿塑料制品有限公司附近",
    "type": "执行矫正",
    "label": "正常",
    "value": 390
  },
  {
    "time": "2018-02-20",
    "lng": 121.392,
    "lat": 30.963,
    "address": "中国上海市奉贤区汇中西路29号在上海力宇液压机械有限公司-西北门附近",
    "type": "执行矫正",
    "label": "正常",
    "value": 390
  },
  {
    "time": "2018-02-20",
    "lng": 121.392,
    "lat": 30.963,
    "address": "中国上海市奉贤区汇中西路29号在上海力宇液压机械有限公司-西北门附近",
    "type": "执行矫正",
    "label": "正常",
    "value": 390
  },
  {
    "time": "2018-03-02",
    "lng": 121.392,
    "lat": 30.963,
    "address": "中国上海市奉贤区汇中西路29号在云鹿塑料制品有限公司附近",
    "type": "执行矫正",
    "label": "正常",
    "value": 390
  },
  {
    "time": "2018-02-15",
    "lng": 121.392,
    "lat": 30.963,
    "address": "中国上海市奉贤区汇中西路29号在上海力宇液压机械有限公司-西北门附近",
    "type": "执行矫正",
    "label": "正常",
    "value": 390
  },
  {
    "time": "2018-02-22",
    "lng": 121.392,
    "lat": 30.963,
    "address": "中国上海市奉贤区汇中西路29号在上海力宇液压机械有限公司-西北门附近",
    "type": "执行矫正",
    "label": "正常",
    "value": 390
  },
  {
    "time": "2018-03-02",
    "lng": 121.392,
    "lat": 30.963,
    "address": "中国上海市奉贤区汇中西路29号在云鹿塑料制品有限公司附近",
    "type": "执行矫正",
    "label": "正常",
    "value": 390
  },
  {
    "time": "2018-02-22",
    "lng": 121.392,
    "lat": 30.963,
    "address": "中国上海市奉贤区汇中西路29号在上海力宇液压机械有限公司-西北门附近",
    "type": "执行矫正",
    "label": "正常",
    "value": 390
  },
  {
    "time": "2018-03-06",
    "lng": 121.392,
    "lat": 30.963,
    "address": "中国上海市奉贤区汇中西路29号在上海力宇液压机械有限公司-西北门附近",
    "type": "执行矫正",
    "label": "正常",
    "value": 390
  },
  {
    "time": "2018-02-24",
    "lng": 121.392,
    "lat": 30.963,
    "address": "中国上海市奉贤区汇中西路29号在上海力宇液压机械有限公司-西北门附近",
    "type": "执行矫正",
    "label": "正常",
    "value": 390
  },
  {
    "time": "2018-03-08",
    "lng": 121.392,
    "lat": 30.963,
    "address": "中国上海市奉贤区汇中西路29号在上海力宇液压机械有限公司-西北门附近",
    "type": "执行矫正",
    "label": "正常",
    "value": 390
  },
  {
    "time": "2018-03-24",
    "lng": 121.392,
    "lat": 30.963,
    "address": "中国上海市奉贤区汇中西路29号在云鹿塑料制品有限公司附近",
    "type": "执行矫正",
    "label": "正常",
    "value": 390
  },
  {
    "time": "2018-03-24",
    "lng": 121.392,
    "lat": 30.963,
    "address": "中国上海市奉贤区汇中西路29号在云鹿塑料制品有限公司附近",
    "type": "执行矫正",
    "label": "正常",
    "value": 390
  },
  {
    "time": "2018-02-20",
    "lng": 121.392,
    "lat": 30.963,
    "address": "中国上海市奉贤区汇中西路29号在上海力宇液压机械有限公司-西北门附近",
    "type": "执行矫正",
    "label": "正常",
    "value": 390
  },
  {
    "time": "2018-03-30",
    "lng": 121.392,
    "lat": 30.963,
    "address": "中国上海市奉贤区汇中西路29号在云鹿塑料制品有限公司附近",
    "type": "执行矫正",
    "label": "正常",
    "value": 390
  },
  {
    "time": "2018-02-18",
    "lng": 121.392,
    "lat": 30.963,
    "address": "中国上海市奉贤区汇中西路29号在上海力宇液压机械有限公司-西北门附近",
    "type": "执行矫正",
    "label": "正常",
    "value": 390
  },
  {
    "time": "2018-02-16",
    "lng": 121.392,
    "lat": 30.963,
    "address": "中国上海市奉贤区汇中西路29号在上海力宇液压机械有限公司-西北门附近",
    "type": "执行矫正",
    "label": "正常",
    "value": 390
  },
  {
    "time": "2018-02-18",
    "lng": 121.392,
    "lat": 30.963,
    "address": "中国上海市奉贤区汇中西路29号在上海力宇液压机械有限公司-西北门附近",
    "type": "执行矫正",
    "label": "正常",
    "value": 390
  },
  {
    "time": "2018-01-17",
    "lng": 121.392,
    "lat": 30.963,
    "address": "上海市奉贤区汇中西路29号",
    "type": "执行矫正",
    "label": "正常",
    "value": 390
  },
  {
    "time": "2018-03-10",
    "lng": 121.392,
    "lat": 30.963,
    "address": "上海市奉贤区安邬路37",
    "type": "执行矫正",
    "label": "正常",
    "value": 390
  },
  {
    "time": "2018-02-04",
    "lng": 121.392,
    "lat": 30.963,
    "address": "上海市奉贤区安邬路37",
    "type": "执行矫正",
    "label": "正常",
    "value": 390
  },
  {
    "time": "2018-02-14",
    "lng": 121.392,
    "lat": 30.964,
    "address": "上海市奉贤区",
    "type": "执行矫正",
    "label": "正常",
    "value": 2
  },
  {
    "time": "2018-02-04",
    "lng": 121.392,
    "lat": 30.964,
    "address": "上海市奉贤区安邬路188号",
    "type": "执行矫正",
    "label": "正常",
    "value": 2
  },
  {
    "time": "2018-03-14",
    "lng": 121.393,
    "lat": 30.885,
    "address": "中国上海市奉贤区庄良路1051在上海奉贤区庄行成人学校附近",
    "type": "执行矫正",
    "label": "正常",
    "value": 2
  },
  {
    "time": "2018-03-14",
    "lng": 121.393,
    "lat": 30.885,
    "address": "中国上海市奉贤区庄良路1051在上海奉贤区庄行成人学校附近",
    "type": "执行矫正",
    "label": "正常",
    "value": 2
  },
  {
    "time": "2018-03-09",
    "lng": 121.393,
    "lat": 30.9,
    "address": "中国上海市奉贤区Y433(庄良公路)在庄行新苑附近",
    "type": "执行矫正",
    "label": "正常",
    "value": 3
  },
  {
    "time": "2018-03-09",
    "lng": 121.393,
    "lat": 30.9,
    "address": "中国上海市奉贤区Y433(庄良公路)在庄行新苑附近",
    "type": "执行矫正",
    "label": "正常",
    "value": 3
  },
  {
    "time": "2018-02-08",
    "lng": 121.393,
    "lat": 30.9,
    "address": "中国上海市奉贤区Y433(庄良公路)在庄行新苑附近",
    "type": "执行矫正",
    "label": "正常",
    "value": 3
  },
  {
    "time": "2018-05-11",
    "lng": 121.393,
    "lat": 30.936,
    "address": "中国上海市奉贤区西经二路在李家沙附近",
    "type": "执行矫正",
    "label": "正常",
    "value": 1
  },
  {
    "time": "2018-05-11",
    "lng": 121.393,
    "lat": 30.937,
    "address": "中国上海市奉贤区西纬三路158号在爱光科技附近",
    "type": "执行矫正",
    "label": "正常",
    "value": 1
  },
  {
    "time": "2018-01-31",
    "lng": 121.393,
    "lat": 30.961,
    "address": "上海市奉贤区安邬路79号",
    "type": "执行矫正",
    "label": "正常",
    "value": 1
  },
  {
    "time": "2018-02-02",
    "lng": 121.393,
    "lat": 30.963,
    "address": "上海市奉贤区安邬路37",
    "type": "执行矫正",
    "label": "正常",
    "value": 5
  },
  {
    "time": "2018-01-19",
    "lng": 121.393,
    "lat": 30.963,
    "address": "上海市奉贤区安邬路37",
    "type": "执行矫正",
    "label": "正常",
    "value": 5
  },
  {
    "time": "2018-03-12",
    "lng": 121.393,
    "lat": 30.963,
    "address": "中国上海市奉贤区安邬路37在上海世好劳务咨询附近",
    "type": "执行矫正",
    "label": "正常",
    "value": 5
  },
  {
    "time": "2018-01-18",
    "lng": 121.393,
    "lat": 30.963,
    "address": "上海市奉贤区汇中西路2号",
    "type": "执行矫正",
    "label": "正常",
    "value": 5
  },
  {
    "time": "2018-03-12",
    "lng": 121.393,
    "lat": 30.963,
    "address": "中国上海市奉贤区安邬路179号在开心小厨附近",
    "type": "执行矫正",
    "label": "正常",
    "value": 5
  },
  {
    "time": "2018-05-12",
    "lng": 121.393,
    "lat": 30.964,
    "address": "中国上海市奉贤区安邬路188号在上海奉贤区乐慧养老院-东南门附近",
    "type": "执行矫正",
    "label": "正常",
    "value": 1
  },
  {
    "time": "2018-02-23",
    "lng": 121.394,
    "lat": 30.911,
    "address": "中国上海市奉贤区福利路18号在奉贤区庄行镇残联附近",
    "type": "执行矫正",
    "label": "正常",
    "value": 2
  },
  {
    "time": "2018-02-23",
    "lng": 121.394,
    "lat": 30.911,
    "address": "中国上海市奉贤区福利路18号在奉贤区庄行镇残联附近",
    "type": "执行矫正",
    "label": "正常",
    "value": 2
  },
  {
    "time": "2018-02-04",
    "lng": 121.394,
    "lat": 30.961,
    "address": "上海市奉贤区安邬路129",
    "type": "执行矫正",
    "label": "正常",
    "value": 1
  },
  {
    "time": "2018-02-02",
    "lng": 121.394,
    "lat": 30.962,
    "address": "上海市奉贤区安邬路138号",
    "type": "执行矫正",
    "label": "正常",
    "value": 1
  },
  {
    "time": "2018-03-14",
    "lng": 121.394,
    "lat": 30.963,
    "address": "中国上海市奉贤区安邬路179号在幸福小灶附近",
    "type": "执行矫正",
    "label": "正常",
    "value": 4
  },
  {
    "time": "2018-02-09",
    "lng": 121.394,
    "lat": 30.963,
    "address": "上海市奉贤区汇中路154号",
    "type": "执行矫正",
    "label": "正常",
    "value": 4
  },
  {
    "time": "2018-05-08",
    "lng": 121.394,
    "lat": 30.963,
    "address": "中国上海市奉贤区汇中中路148号在邬桥学校北校区附近",
    "type": "执行矫正",
    "label": "正常",
    "value": 4
  },
  {
    "time": "2018-05-07",
    "lng": 121.394,
    "lat": 30.963,
    "address": "中国上海市奉贤区汇中中路148号在邬桥学校北校区附近",
    "type": "执行矫正",
    "label": "正常",
    "value": 4
  },
  {
    "time": "2018-02-08",
    "lng": 121.394,
    "lat": 30.965,
    "address": "上海市奉贤区",
    "type": "执行矫正",
    "label": "正常",
    "value": 1
  },
  {
    "time": "2018-02-02",
    "lng": 121.394,
    "lat": 30.966,
    "address": "上海市奉贤区",
    "type": "执行矫正",
    "label": "正常",
    "value": 3
  },
  {
    "time": "2018-05-05",
    "lng": 121.394,
    "lat": 30.966,
    "address": "中国上海市奉贤区安中路在邬桥汇安小区-30号楼附近",
    "type": "执行矫正",
    "label": "正常",
    "value": 3
  },
  {
    "time": "2018-05-05",
    "lng": 121.394,
    "lat": 30.966,
    "address": "中国上海市奉贤区邬桥在邬桥汇安小区-30号楼附近",
    "type": "执行矫正",
    "label": "正常",
    "value": 3
  },
  {
    "time": "2018-02-02",
    "lng": 121.394,
    "lat": 30.967,
    "address": "上海市奉贤区",
    "type": "执行矫正",
    "label": "正常",
    "value": 4
  },
  {
    "time": "2018-02-02",
    "lng": 121.394,
    "lat": 30.967,
    "address": "上海市奉贤区",
    "type": "执行矫正",
    "label": "正常",
    "value": 4
  },
  {
    "time": "2018-02-02",
    "lng": 121.394,
    "lat": 30.967,
    "address": "上海市奉贤区",
    "type": "执行矫正",
    "label": "正常",
    "value": 4
  },
  {
    "time": "2018-02-02",
    "lng": 121.394,
    "lat": 30.967,
    "address": "上海市奉贤区",
    "type": "执行矫正",
    "label": "正常",
    "value": 4
  },
  {
    "time": "2018-02-02",
    "lng": 121.394,
    "lat": 30.968,
    "address": "上海市奉贤区",
    "type": "执行矫正",
    "label": "正常",
    "value": 13
  },
  {
    "time": "2018-03-02",
    "lng": 121.394,
    "lat": 30.968,
    "address": "中国上海市奉贤区安中路在千汇小区附近",
    "type": "执行矫正",
    "label": "正常",
    "value": 13
  },
  {
    "time": "2018-03-02",
    "lng": 121.394,
    "lat": 30.968,
    "address": "中国上海市奉贤区安中路在千汇小区附近",
    "type": "执行矫正",
    "label": "正常",
    "value": 13
  },
  {
    "time": "2018-02-15",
    "lng": 121.394,
    "lat": 30.968,
    "address": "中国上海市奉贤区安中路在千汇小区附近",
    "type": "执行矫正",
    "label": "正常",
    "value": 13
  },
  {
    "time": "2018-02-11",
    "lng": 121.394,
    "lat": 30.968,
    "address": "中国上海市奉贤区安中路在千汇小区附近",
    "type": "执行矫正",
    "label": "正常",
    "value": 13
  },
  {
    "time": "2018-02-11",
    "lng": 121.394,
    "lat": 30.968,
    "address": "中国上海市奉贤区安中路在千汇小区附近",
    "type": "执行矫正",
    "label": "正常",
    "value": 13
  },
  {
    "time": "2018-03-10",
    "lng": 121.394,
    "lat": 30.968,
    "address": "中国上海市奉贤区安中路在千汇小区附近",
    "type": "执行矫正",
    "label": "正常",
    "value": 13
  },
  {
    "time": "2018-03-10",
    "lng": 121.394,
    "lat": 30.968,
    "address": "中国上海市奉贤区安中路在千汇小区附近",
    "type": "执行矫正",
    "label": "正常",
    "value": 13
  },
  {
    "time": "2018-02-15",
    "lng": 121.394,
    "lat": 30.968,
    "address": "中国上海市奉贤区安中路在千汇小区附近",
    "type": "执行矫正",
    "label": "正常",
    "value": 13
  },
  {
    "time": "2018-05-06",
    "lng": 121.394,
    "lat": 30.968,
    "address": "中国上海市奉贤区安中路在千汇小区附近",
    "type": "执行矫正",
    "label": "正常",
    "value": 13
  },
  {
    "time": "2018-05-06",
    "lng": 121.394,
    "lat": 30.968,
    "address": "中国上海市奉贤区安中路在千汇小区附近",
    "type": "执行矫正",
    "label": "正常",
    "value": 13
  },
  {
    "time": "2018-05-30",
    "lng": 121.394,
    "lat": 30.968,
    "address": "中国上海市奉贤区安中路在千汇小区附近",
    "type": "执行矫正",
    "label": "正常",
    "value": 13
  },
  {
    "time": "2018-05-30",
    "lng": 121.394,
    "lat": 30.968,
    "address": "中国上海市奉贤区安中路在千汇小区附近",
    "type": "执行矫正",
    "label": "正常",
    "value": 13
  },
  {
    "time": "2018-02-09",
    "lng": 121.395,
    "lat": 30.961,
    "address": "上海市奉贤区安中路108号",
    "type": "执行矫正",
    "label": "正常",
    "value": 1
  },
  {
    "time": "2018-01-19",
    "lng": 121.395,
    "lat": 30.964,
    "address": "上海市奉贤区汇中中路97",
    "type": "执行矫正",
    "label": "正常",
    "value": 2
  },
  {
    "time": "2018-01-19",
    "lng": 121.395,
    "lat": 30.964,
    "address": "上海市奉贤区安中中路193号",
    "type": "执行矫正",
    "label": "正常",
    "value": 2
  },
  {
    "time": "2018-02-04",
    "lng": 121.395,
    "lat": 30.965,
    "address": "上海市奉贤区汇中路126号",
    "type": "执行矫正",
    "label": "正常",
    "value": 1
  },
  {
    "time": "2018-01-17",
    "lng": 121.396,
    "lat": 30.957,
    "address": "上海市奉贤区",
    "type": "执行矫正",
    "label": "正常",
    "value": 1
  },
  {
    "time": "2018-02-08",
    "lng": 121.396,
    "lat": 30.958,
    "address": "上海市奉贤区大叶公路2628号",
    "type": "执行矫正",
    "label": "正常",
    "value": 1
  },
  {
    "time": "2018-02-08",
    "lng": 121.396,
    "lat": 30.959,
    "address": "上海市奉贤区大叶公路2596号",
    "type": "执行矫正",
    "label": "正常",
    "value": 3
  },
  {
    "time": "2018-01-24",
    "lng": 121.396,
    "lat": 30.959,
    "address": "上海市奉贤区大叶公路2596号",
    "type": "执行矫正",
    "label": "正常",
    "value": 3
  },
  {
    "time": "2018-01-24",
    "lng": 121.396,
    "lat": 30.959,
    "address": "上海市奉贤区大叶公路2589号",
    "type": "执行矫正",
    "label": "正常",
    "value": 3
  },
  {
    "time": "2018-02-02",
    "lng": 121.396,
    "lat": 30.962,
    "address": "上海市奉贤区安中中路117号",
    "type": "执行矫正",
    "label": "正常",
    "value": 1
  },
  {
    "time": "2018-05-15",
    "lng": 121.396,
    "lat": 30.964,
    "address": "中国上海市奉贤区汇中中路97在鹰王渔具超市附近",
    "type": "执行矫正",
    "label": "正常",
    "value": 3
  },
  {
    "time": "2018-05-15",
    "lng": 121.396,
    "lat": 30.964,
    "address": "中国上海市奉贤区汇中中路97在鹰王渔具超市附近",
    "type": "执行矫正",
    "label": "正常",
    "value": 3
  },
  {
    "time": "2018-01-19",
    "lng": 121.396,
    "lat": 30.964,
    "address": "上海市奉贤区汇中中路82号",
    "type": "执行矫正",
    "label": "正常",
    "value": 3
  },
  {
    "time": "2018-02-02",
    "lng": 121.396,
    "lat": 30.966,
    "address": "上海市奉贤区",
    "type": "执行矫正",
    "label": "正常",
    "value": 1
  },
  {
    "time": "2018-02-02",
    "lng": 121.397,
    "lat": 30.957,
    "address": "上海市奉贤区",
    "type": "执行矫正",
    "label": "正常",
    "value": 2
  },
  {
    "time": "2018-02-02",
    "lng": 121.397,
    "lat": 30.957,
    "address": "上海市奉贤区",
    "type": "执行矫正",
    "label": "正常",
    "value": 2
  },
  {
    "time": "2018-02-02",
    "lng": 121.397,
    "lat": 30.959,
    "address": "上海市奉贤区大叶公路888号",
    "type": "执行矫正",
    "label": "正常",
    "value": 7
  },
  {
    "time": "2018-02-02",
    "lng": 121.397,
    "lat": 30.959,
    "address": "上海市奉贤区大叶公路2617号",
    "type": "执行矫正",
    "label": "正常",
    "value": 7
  },
  {
    "time": "2018-02-02",
    "lng": 121.397,
    "lat": 30.959,
    "address": "上海市奉贤区大叶公路2626号",
    "type": "执行矫正",
    "label": "正常",
    "value": 7
  },
  {
    "time": "2018-02-04",
    "lng": 121.397,
    "lat": 30.959,
    "address": "上海市奉贤区大叶公路2626号",
    "type": "执行矫正",
    "label": "正常",
    "value": 7
  },
  {
    "time": "2018-02-02",
    "lng": 121.397,
    "lat": 30.959,
    "address": "上海市奉贤区大叶公路2626号",
    "type": "执行矫正",
    "label": "正常",
    "value": 7
  },
  {
    "time": "2018-02-04",
    "lng": 121.397,
    "lat": 30.959,
    "address": "上海市奉贤区大叶公路2623号",
    "type": "执行矫正",
    "label": "正常",
    "value": 7
  },
  {
    "time": "2018-02-02",
    "lng": 121.397,
    "lat": 30.959,
    "address": "上海市奉贤区大叶公路2627号",
    "type": "执行矫正",
    "label": "正常",
    "value": 7
  },
  {
    "time": "2018-02-08",
    "lng": 121.397,
    "lat": 30.96,
    "address": "上海市奉贤区大叶公路2601",
    "type": "执行矫正",
    "label": "正常",
    "value": 5
  },
  {
    "time": "2018-03-31",
    "lng": 121.397,
    "lat": 30.96,
    "address": "上海市奉贤区大叶公路2621号",
    "type": "执行矫正",
    "label": "正常",
    "value": 5
  },
  {
    "time": "2018-03-16",
    "lng": 121.397,
    "lat": 30.96,
    "address": "中国上海市奉贤区大叶公路2621号在中国农业银行(邬桥支行)附近",
    "type": "执行矫正",
    "label": "正常",
    "value": 5
  },
  {
    "time": "2018-03-16",
    "lng": 121.397,
    "lat": 30.96,
    "address": "中国上海市奉贤区大叶公路2621号在中国农业银行(邬桥支行)附近",
    "type": "执行矫正",
    "label": "正常",
    "value": 5
  },
  {
    "time": "2018-02-09",
    "lng": 121.397,
    "lat": 30.96,
    "address": "上海市奉贤区大叶公路2621号",
    "type": "执行矫正",
    "label": "正常",
    "value": 5
  },
  {
    "time": "2018-02-09",
    "lng": 121.397,
    "lat": 30.964,
    "address": "上海市奉贤区汇中中路33号",
    "type": "执行矫正",
    "label": "正常",
    "value": 1
  },
  {
    "time": "2018-02-04",
    "lng": 121.397,
    "lat": 31.07,
    "address": "上海市闵行区颛兴路1号",
    "type": "执行矫正",
    "label": "正常",
    "value": 1
  },
  {
    "time": "2018-02-04",
    "lng": 121.398,
    "lat": 30.959,
    "address": "上海市奉贤区大叶公路2640号",
    "type": "执行矫正",
    "label": "正常",
    "value": 1
  },
  {
    "time": "2018-03-26",
    "lng": 121.398,
    "lat": 30.96,
    "address": "上海市奉贤区大叶公路2629号",
    "type": "执行矫正",
    "label": "正常",
    "value": 4
  },
  {
    "time": "2018-02-08",
    "lng": 121.398,
    "lat": 30.96,
    "address": "上海市奉贤区大叶公路2655号",
    "type": "执行矫正",
    "label": "正常",
    "value": 4
  },
  {
    "time": "2018-02-09",
    "lng": 121.398,
    "lat": 30.96,
    "address": "上海市奉贤区大叶公路2655号",
    "type": "执行矫正",
    "label": "正常",
    "value": 4
  },
  {
    "time": "2018-03-28",
    "lng": 121.398,
    "lat": 30.96,
    "address": "上海市奉贤区大叶公路2653号",
    "type": "执行矫正",
    "label": "正常",
    "value": 4
  },
  {
    "time": "2018-05-24",
    "lng": 121.398,
    "lat": 30.965,
    "address": "上海市奉贤区邬桥",
    "type": "执行矫正",
    "label": "正常",
    "value": 3
  },
  {
    "time": "2018-06-02",
    "lng": 121.398,
    "lat": 30.965,
    "address": "上海市奉贤区邬桥",
    "type": "执行矫正",
    "label": "正常",
    "value": 3
  },
  {
    "time": "2018-05-24",
    "lng": 121.398,
    "lat": 30.965,
    "address": "上海市奉贤区邬桥",
    "type": "执行矫正",
    "label": "正常",
    "value": 3
  },
  {
    "time": "2018-02-03",
    "lng": 121.398,
    "lat": 31.024,
    "address": "上海市闵行区剑川路1280号",
    "type": "执行矫正",
    "label": "正常",
    "value": 1
  },
  {
    "time": "2018-05-29",
    "lng": 121.398,
    "lat": 31.295,
    "address": "上海市普陀区古浪路356弄-320号-7幢",
    "type": "执行矫正",
    "label": "潜在异常",
    "value": 1
  },
  {
    "time": "2018-03-26",
    "lng": 121.399,
    "lat": 30.958,
    "address": "上海市奉贤区大叶公路2658号",
    "type": "执行矫正",
    "label": "正常",
    "value": 1
  },
  {
    "time": "2018-02-27",
    "lng": 121.399,
    "lat": 30.96,
    "address": "中国上海市奉贤区大叶公路2665号在庄行镇邬桥经济园区附近",
    "type": "执行矫正",
    "label": "正常",
    "value": 4
  },
  {
    "time": "2018-02-27",
    "lng": 121.399,
    "lat": 30.96,
    "address": "中国上海市奉贤区大叶公路2665号在庄行镇邬桥经济园区附近",
    "type": "执行矫正",
    "label": "正常",
    "value": 4
  },
  {
    "time": "2018-02-02",
    "lng": 121.399,
    "lat": 30.96,
    "address": "上海市奉贤区大叶公路2660号",
    "type": "执行矫正",
    "label": "正常",
    "value": 4
  },
  {
    "time": "2018-02-03",
    "lng": 121.399,
    "lat": 30.96,
    "address": "上海市奉贤区大叶公路2664号",
    "type": "执行矫正",
    "label": "正常",
    "value": 4
  },
  {
    "time": "2018-02-03",
    "lng": 121.399,
    "lat": 31.009,
    "address": "上海市闵行区",
    "type": "执行矫正",
    "label": "正常",
    "value": 1
  },
  {
    "time": "2018-02-01",
    "lng": 121.399,
    "lat": 31.024,
    "address": "上海市闵行区剑川路1268-临",
    "type": "执行矫正",
    "label": "正常",
    "value": 1
  },
  {
    "time": "2018-05-30",
    "lng": 121.4,
    "lat": 30.956,
    "address": "上海市奉贤区Y432(浦卫公路)",
    "type": "执行矫正",
    "label": "正常",
    "value": 1
  },
  {
    "time": "2018-05-24",
    "lng": 121.4,
    "lat": 30.962,
    "address": "上海市奉贤区大叶公路2199号",
    "type": "执行矫正",
    "label": "正常",
    "value": 62
  },
  {
    "time": "2018-05-24",
    "lng": 121.4,
    "lat": 30.962,
    "address": "上海市奉贤区大叶公路2199号",
    "type": "执行矫正",
    "label": "正常",
    "value": 62
  },
  {
    "time": "2018-05-28",
    "lng": 121.4,
    "lat": 30.962,
    "address": "上海市奉贤区大叶公路2199号",
    "type": "执行矫正",
    "label": "正常",
    "value": 62
  },
  {
    "time": "2018-06-03",
    "lng": 121.4,
    "lat": 30.962,
    "address": "上海市奉贤区大叶公路2199号",
    "type": "执行矫正",
    "label": "正常",
    "value": 62
  },
  {
    "time": "2018-05-24",
    "lng": 121.4,
    "lat": 30.962,
    "address": "上海市奉贤区大叶公路2199号",
    "type": "执行矫正",
    "label": "正常",
    "value": 62
  },
  {
    "time": "2018-06-03",
    "lng": 121.4,
    "lat": 30.962,
    "address": "上海市奉贤区大叶公路2199号",
    "type": "执行矫正",
    "label": "正常",
    "value": 62
  },
  {
    "time": "2018-05-15",
    "lng": 121.4,
    "lat": 30.962,
    "address": "上海市奉贤区大叶公路2199号",
    "type": "执行矫正",
    "label": "正常",
    "value": 62
  },
  {
    "time": "2018-05-23",
    "lng": 121.4,
    "lat": 30.962,
    "address": "上海市奉贤区大叶公路2199号",
    "type": "执行矫正",
    "label": "正常",
    "value": 62
  },
  {
    "time": "2018-05-30",
    "lng": 121.4,
    "lat": 30.962,
    "address": "上海市奉贤区大叶公路2199号",
    "type": "执行矫正",
    "label": "正常",
    "value": 62
  },
  {
    "time": "2018-05-15",
    "lng": 121.4,
    "lat": 30.962,
    "address": "上海市奉贤区大叶公路2199号",
    "type": "执行矫正",
    "label": "正常",
    "value": 62
  },
  {
    "time": "2018-05-23",
    "lng": 121.4,
    "lat": 30.962,
    "address": "上海市奉贤区大叶公路2199号",
    "type": "执行矫正",
    "label": "正常",
    "value": 62
  },
  {
    "time": "2018-06-03",
    "lng": 121.4,
    "lat": 30.962,
    "address": "上海市奉贤区大叶公路2199号",
    "type": "执行矫正",
    "label": "正常",
    "value": 62
  },
  {
    "time": "2018-05-15",
    "lng": 121.4,
    "lat": 30.962,
    "address": "上海市奉贤区大叶公路2199号",
    "type": "执行矫正",
    "label": "正常",
    "value": 62
  },
  {
    "time": "2018-05-24",
    "lng": 121.4,
    "lat": 30.962,
    "address": "上海市奉贤区大叶公路2199号",
    "type": "执行矫正",
    "label": "正常",
    "value": 62
  },
  {
    "time": "2018-05-29",
    "lng": 121.4,
    "lat": 30.962,
    "address": "上海市奉贤区大叶公路2199号",
    "type": "执行矫正",
    "label": "正常",
    "value": 62
  },
  {
    "time": "2018-05-29",
    "lng": 121.4,
    "lat": 30.962,
    "address": "上海市奉贤区大叶公路2199号",
    "type": "执行矫正",
    "label": "正常",
    "value": 62
  },
  {
    "time": "2018-06-03",
    "lng": 121.4,
    "lat": 30.962,
    "address": "上海市奉贤区大叶公路2199号",
    "type": "执行矫正",
    "label": "正常",
    "value": 62
  },
  {
    "time": "2018-05-16",
    "lng": 121.4,
    "lat": 30.962,
    "address": "上海市奉贤区大叶公路2199号",
    "type": "执行矫正",
    "label": "正常",
    "value": 62
  },
  {
    "time": "2018-05-29",
    "lng": 121.4,
    "lat": 30.962,
    "address": "上海市奉贤区大叶公路2199号",
    "type": "执行矫正",
    "label": "正常",
    "value": 62
  },
  {
    "time": "2018-06-02",
    "lng": 121.4,
    "lat": 30.962,
    "address": "上海市奉贤区大叶公路2199号",
    "type": "执行矫正",
    "label": "正常",
    "value": 62
  },
  {
    "time": "2018-06-03",
    "lng": 121.4,
    "lat": 30.962,
    "address": "上海市奉贤区大叶公路2199号",
    "type": "执行矫正",
    "label": "正常",
    "value": 62
  },
  {
    "time": "2018-05-23",
    "lng": 121.4,
    "lat": 30.962,
    "address": "上海市奉贤区大叶公路2199号",
    "type": "执行矫正",
    "label": "正常",
    "value": 62
  },
  {
    "time": "2018-05-24",
    "lng": 121.4,
    "lat": 30.962,
    "address": "上海市奉贤区大叶公路2199号",
    "type": "执行矫正",
    "label": "正常",
    "value": 62
  },
  {
    "time": "2018-05-29",
    "lng": 121.4,
    "lat": 30.962,
    "address": "上海市奉贤区大叶公路2199号",
    "type": "执行矫正",
    "label": "正常",
    "value": 62
  },
  {
    "time": "2018-05-31",
    "lng": 121.4,
    "lat": 30.962,
    "address": "上海市奉贤区大叶公路2199号",
    "type": "执行矫正",
    "label": "正常",
    "value": 62
  },
  {
    "time": "2018-05-29",
    "lng": 121.4,
    "lat": 30.962,
    "address": "上海市奉贤区大叶公路2199号",
    "type": "执行矫正",
    "label": "正常",
    "value": 62
  },
  {
    "time": "2018-05-30",
    "lng": 121.4,
    "lat": 30.962,
    "address": "上海市奉贤区大叶公路2199号",
    "type": "执行矫正",
    "label": "正常",
    "value": 62
  },
  {
    "time": "2018-06-03",
    "lng": 121.4,
    "lat": 30.962,
    "address": "上海市奉贤区大叶公路2199号",
    "type": "执行矫正",
    "label": "正常",
    "value": 62
  },
  {
    "time": "2018-05-16",
    "lng": 121.4,
    "lat": 30.962,
    "address": "上海市奉贤区大叶公路2199号",
    "type": "执行矫正",
    "label": "正常",
    "value": 62
  },
  {
    "time": "2018-06-03",
    "lng": 121.4,
    "lat": 30.962,
    "address": "上海市奉贤区大叶公路2199号",
    "type": "执行矫正",
    "label": "正常",
    "value": 62
  },
  {
    "time": "2018-05-16",
    "lng": 121.4,
    "lat": 30.962,
    "address": "上海市奉贤区大叶公路2199号",
    "type": "执行矫正",
    "label": "正常",
    "value": 62
  },
  {
    "time": "2018-05-28",
    "lng": 121.4,
    "lat": 30.962,
    "address": "上海市奉贤区大叶公路2199号",
    "type": "执行矫正",
    "label": "正常",
    "value": 62
  },
  {
    "time": "2018-05-30",
    "lng": 121.4,
    "lat": 30.962,
    "address": "上海市奉贤区大叶公路2199号",
    "type": "执行矫正",
    "label": "正常",
    "value": 62
  },
  {
    "time": "2018-06-03",
    "lng": 121.4,
    "lat": 30.962,
    "address": "上海市奉贤区大叶公路2199号",
    "type": "执行矫正",
    "label": "正常",
    "value": 62
  },
  {
    "time": "2018-05-28",
    "lng": 121.4,
    "lat": 30.962,
    "address": "上海市奉贤区大叶公路2199号",
    "type": "执行矫正",
    "label": "正常",
    "value": 62
  },
  {
    "time": "2018-05-30",
    "lng": 121.4,
    "lat": 30.962,
    "address": "上海市奉贤区大叶公路2199号",
    "type": "执行矫正",
    "label": "正常",
    "value": 62
  },
  {
    "time": "2018-06-01",
    "lng": 121.4,
    "lat": 30.962,
    "address": "上海市奉贤区大叶公路2199号",
    "type": "执行矫正",
    "label": "正常",
    "value": 62
  },
  {
    "time": "2018-06-03",
    "lng": 121.4,
    "lat": 30.962,
    "address": "上海市奉贤区大叶公路2199号",
    "type": "执行矫正",
    "label": "正常",
    "value": 62
  },
  {
    "time": "2018-05-14",
    "lng": 121.4,
    "lat": 30.962,
    "address": "上海市奉贤区大叶公路2199号",
    "type": "执行矫正",
    "label": "正常",
    "value": 62
  },
  {
    "time": "2018-05-16",
    "lng": 121.4,
    "lat": 30.962,
    "address": "上海市奉贤区大叶公路2199号",
    "type": "执行矫正",
    "label": "正常",
    "value": 62
  },
  {
    "time": "2018-05-23",
    "lng": 121.4,
    "lat": 30.962,
    "address": "上海市奉贤区大叶公路2199号",
    "type": "执行矫正",
    "label": "正常",
    "value": 62
  },
  {
    "time": "2018-05-24",
    "lng": 121.4,
    "lat": 30.962,
    "address": "上海市奉贤区大叶公路2199号",
    "type": "执行矫正",
    "label": "正常",
    "value": 62
  },
  {
    "time": "2018-05-30",
    "lng": 121.4,
    "lat": 30.962,
    "address": "上海市奉贤区大叶公路2199号",
    "type": "执行矫正",
    "label": "正常",
    "value": 62
  },
  {
    "time": "2018-05-31",
    "lng": 121.4,
    "lat": 30.962,
    "address": "上海市奉贤区大叶公路2199号",
    "type": "执行矫正",
    "label": "正常",
    "value": 62
  },
  {
    "time": "2018-06-03",
    "lng": 121.4,
    "lat": 30.962,
    "address": "上海市奉贤区大叶公路2199号",
    "type": "执行矫正",
    "label": "正常",
    "value": 62
  },
  {
    "time": "2018-06-02",
    "lng": 121.4,
    "lat": 30.962,
    "address": "上海市奉贤区大叶公路2199号",
    "type": "执行矫正",
    "label": "正常",
    "value": 62
  },
  {
    "time": "2018-05-24",
    "lng": 121.4,
    "lat": 30.962,
    "address": "上海市奉贤区大叶公路2199号",
    "type": "执行矫正",
    "label": "正常",
    "value": 62
  },
  {
    "time": "2018-05-31",
    "lng": 121.4,
    "lat": 30.962,
    "address": "上海市奉贤区大叶公路2199号",
    "type": "执行矫正",
    "label": "正常",
    "value": 62
  },
  {
    "time": "2018-06-02",
    "lng": 121.4,
    "lat": 30.962,
    "address": "上海市奉贤区大叶公路2199号",
    "type": "执行矫正",
    "label": "正常",
    "value": 62
  },
  {
    "time": "2018-06-03",
    "lng": 121.4,
    "lat": 30.962,
    "address": "上海市奉贤区大叶公路2199号",
    "type": "执行矫正",
    "label": "正常",
    "value": 62
  },
  {
    "time": "2018-05-23",
    "lng": 121.4,
    "lat": 30.962,
    "address": "上海市奉贤区大叶公路2199号",
    "type": "执行矫正",
    "label": "正常",
    "value": 62
  },
  {
    "time": "2018-05-30",
    "lng": 121.4,
    "lat": 30.962,
    "address": "上海市奉贤区大叶公路2199号",
    "type": "执行矫正",
    "label": "正常",
    "value": 62
  },
  {
    "time": "2018-05-24",
    "lng": 121.4,
    "lat": 30.962,
    "address": "上海市奉贤区大叶公路2199号",
    "type": "执行矫正",
    "label": "正常",
    "value": 62
  },
  {
    "time": "2018-05-16",
    "lng": 121.4,
    "lat": 30.962,
    "address": "上海市奉贤区大叶公路2199号",
    "type": "执行矫正",
    "label": "正常",
    "value": 62
  },
  {
    "time": "2018-05-23",
    "lng": 121.4,
    "lat": 30.962,
    "address": "上海市奉贤区大叶公路2199号",
    "type": "执行矫正",
    "label": "正常",
    "value": 62
  },
  {
    "time": "2018-05-24",
    "lng": 121.4,
    "lat": 30.962,
    "address": "上海市奉贤区大叶公路2199号",
    "type": "执行矫正",
    "label": "正常",
    "value": 62
  },
  {
    "time": "2018-05-28",
    "lng": 121.4,
    "lat": 30.962,
    "address": "上海市奉贤区大叶公路2199号",
    "type": "执行矫正",
    "label": "正常",
    "value": 62
  },
  {
    "time": "2018-05-29",
    "lng": 121.4,
    "lat": 30.962,
    "address": "上海市奉贤区大叶公路2199号",
    "type": "执行矫正",
    "label": "正常",
    "value": 62
  },
  {
    "time": "2018-05-31",
    "lng": 121.4,
    "lat": 30.962,
    "address": "上海市奉贤区大叶公路2199号",
    "type": "执行矫正",
    "label": "正常",
    "value": 62
  },
  {
    "time": "2018-05-23",
    "lng": 121.4,
    "lat": 30.962,
    "address": "上海市奉贤区大叶公路2199号",
    "type": "执行矫正",
    "label": "正常",
    "value": 62
  },
  {
    "time": "2018-05-28",
    "lng": 121.4,
    "lat": 30.962,
    "address": "上海市奉贤区大叶公路2199号",
    "type": "执行矫正",
    "label": "正常",
    "value": 62
  },
  {
    "time": "2018-05-24",
    "lng": 121.4,
    "lat": 30.962,
    "address": "上海市奉贤区大叶公路2199号",
    "type": "执行矫正",
    "label": "正常",
    "value": 62
  },
  {
    "time": "2018-06-03",
    "lng": 121.4,
    "lat": 30.963,
    "address": "上海市奉贤区大叶公路2199号",
    "type": "执行矫正",
    "label": "正常",
    "value": 34
  },
  {
    "time": "2018-05-30",
    "lng": 121.4,
    "lat": 30.963,
    "address": "上海市奉贤区大叶公路2199号",
    "type": "执行矫正",
    "label": "正常",
    "value": 34
  },
  {
    "time": "2018-05-28",
    "lng": 121.4,
    "lat": 30.963,
    "address": "上海市奉贤区大叶公路2199号",
    "type": "执行矫正",
    "label": "正常",
    "value": 34
  },
  {
    "time": "2018-05-29",
    "lng": 121.4,
    "lat": 30.963,
    "address": "上海市奉贤区大叶公路2199号",
    "type": "执行矫正",
    "label": "正常",
    "value": 34
  },
  {
    "time": "2018-05-16",
    "lng": 121.4,
    "lat": 30.963,
    "address": "上海市奉贤区大叶公路2199号",
    "type": "执行矫正",
    "label": "正常",
    "value": 34
  },
  {
    "time": "2018-05-28",
    "lng": 121.4,
    "lat": 30.963,
    "address": "上海市奉贤区大叶公路2199号",
    "type": "执行矫正",
    "label": "正常",
    "value": 34
  },
  {
    "time": "2018-05-29",
    "lng": 121.4,
    "lat": 30.963,
    "address": "上海市奉贤区大叶公路2199号",
    "type": "执行矫正",
    "label": "正常",
    "value": 34
  },
  {
    "time": "2018-05-30",
    "lng": 121.4,
    "lat": 30.963,
    "address": "上海市奉贤区大叶公路2199号",
    "type": "执行矫正",
    "label": "正常",
    "value": 34
  },
  {
    "time": "2018-06-03",
    "lng": 121.4,
    "lat": 30.963,
    "address": "上海市奉贤区大叶公路2199号",
    "type": "执行矫正",
    "label": "正常",
    "value": 34
  },
  {
    "time": "2018-05-29",
    "lng": 121.4,
    "lat": 30.963,
    "address": "上海市奉贤区大叶公路2199号",
    "type": "执行矫正",
    "label": "正常",
    "value": 34
  },
  {
    "time": "2018-05-23",
    "lng": 121.4,
    "lat": 30.963,
    "address": "上海市奉贤区大叶公路2199号",
    "type": "执行矫正",
    "label": "正常",
    "value": 34
  },
  {
    "time": "2018-05-24",
    "lng": 121.4,
    "lat": 30.963,
    "address": "上海市奉贤区大叶公路2199号",
    "type": "执行矫正",
    "label": "正常",
    "value": 34
  },
  {
    "time": "2018-06-01",
    "lng": 121.4,
    "lat": 30.963,
    "address": "上海市奉贤区大叶公路2199号",
    "type": "执行矫正",
    "label": "正常",
    "value": 34
  },
  {
    "time": "2018-06-03",
    "lng": 121.4,
    "lat": 30.963,
    "address": "上海市奉贤区大叶公路2199号",
    "type": "执行矫正",
    "label": "正常",
    "value": 34
  },
  {
    "time": "2018-06-02",
    "lng": 121.4,
    "lat": 30.963,
    "address": "上海市奉贤区大叶公路2199号",
    "type": "执行矫正",
    "label": "正常",
    "value": 34
  },
  {
    "time": "2018-06-03",
    "lng": 121.4,
    "lat": 30.963,
    "address": "上海市奉贤区大叶公路2199号",
    "type": "执行矫正",
    "label": "正常",
    "value": 34
  },
  {
    "time": "2018-05-29",
    "lng": 121.4,
    "lat": 30.963,
    "address": "上海市奉贤区大叶公路2199号",
    "type": "执行矫正",
    "label": "正常",
    "value": 34
  },
  {
    "time": "2018-05-24",
    "lng": 121.4,
    "lat": 30.963,
    "address": "上海市奉贤区大叶公路2199号",
    "type": "执行矫正",
    "label": "正常",
    "value": 34
  },
  {
    "time": "2018-05-24",
    "lng": 121.4,
    "lat": 30.963,
    "address": "上海市奉贤区大叶公路2199号",
    "type": "执行矫正",
    "label": "正常",
    "value": 34
  },
  {
    "time": "2018-05-29",
    "lng": 121.4,
    "lat": 30.963,
    "address": "上海市奉贤区大叶公路2199号",
    "type": "执行矫正",
    "label": "正常",
    "value": 34
  },
  {
    "time": "2018-05-30",
    "lng": 121.4,
    "lat": 30.963,
    "address": "上海市奉贤区大叶公路2199号",
    "type": "执行矫正",
    "label": "正常",
    "value": 34
  },
  {
    "time": "2018-05-30",
    "lng": 121.4,
    "lat": 30.963,
    "address": "上海市奉贤区大叶公路2199号",
    "type": "执行矫正",
    "label": "正常",
    "value": 34
  },
  {
    "time": "2018-06-03",
    "lng": 121.4,
    "lat": 30.963,
    "address": "上海市奉贤区大叶公路2199号",
    "type": "执行矫正",
    "label": "正常",
    "value": 34
  },
  {
    "time": "2018-05-15",
    "lng": 121.4,
    "lat": 30.963,
    "address": "上海市奉贤区大叶公路2199号",
    "type": "执行矫正",
    "label": "正常",
    "value": 34
  },
  {
    "time": "2018-05-30",
    "lng": 121.4,
    "lat": 30.963,
    "address": "上海市奉贤区大叶公路2199号",
    "type": "执行矫正",
    "label": "正常",
    "value": 34
  },
  {
    "time": "2018-06-02",
    "lng": 121.4,
    "lat": 30.963,
    "address": "上海市奉贤区大叶公路2199号",
    "type": "执行矫正",
    "label": "正常",
    "value": 34
  },
  {
    "time": "2018-05-30",
    "lng": 121.4,
    "lat": 30.963,
    "address": "上海市奉贤区大叶公路2199号",
    "type": "执行矫正",
    "label": "正常",
    "value": 34
  },
  {
    "time": "2018-05-16",
    "lng": 121.4,
    "lat": 30.963,
    "address": "上海市奉贤区大叶公路2199号",
    "type": "执行矫正",
    "label": "正常",
    "value": 34
  },
  {
    "time": "2018-05-24",
    "lng": 121.4,
    "lat": 30.963,
    "address": "上海市奉贤区大叶公路2199号",
    "type": "执行矫正",
    "label": "正常",
    "value": 34
  },
  {
    "time": "2018-05-30",
    "lng": 121.4,
    "lat": 30.963,
    "address": "上海市奉贤区大叶公路2199号",
    "type": "执行矫正",
    "label": "正常",
    "value": 34
  },
  {
    "time": "2018-05-31",
    "lng": 121.4,
    "lat": 30.963,
    "address": "上海市奉贤区大叶公路2199号",
    "type": "执行矫正",
    "label": "正常",
    "value": 34
  },
  {
    "time": "2018-05-15",
    "lng": 121.4,
    "lat": 30.963,
    "address": "上海市奉贤区大叶公路2199号",
    "type": "执行矫正",
    "label": "正常",
    "value": 34
  },
  {
    "time": "2018-05-16",
    "lng": 121.4,
    "lat": 30.963,
    "address": "上海市奉贤区大叶公路2199号",
    "type": "执行矫正",
    "label": "正常",
    "value": 34
  },
  {
    "time": "2018-06-02",
    "lng": 121.4,
    "lat": 30.963,
    "address": "上海市奉贤区大叶公路2199号",
    "type": "执行矫正",
    "label": "正常",
    "value": 34
  },
  {
    "time": "2018-02-27",
    "lng": 121.4,
    "lat": 31.008,
    "address": "中国上海市闵行区鹤庆路912号在鹤庆路竹港桥附近",
    "type": "执行矫正",
    "label": "正常",
    "value": 1
  },
  {
    "time": "2018-02-03",
    "lng": 121.4,
    "lat": 31.009,
    "address": "上海市闵行区鹤庆路882号",
    "type": "执行矫正",
    "label": "正常",
    "value": 1
  },
  {
    "time": "2018-02-04",
    "lng": 121.401,
    "lat": 30.96,
    "address": "上海市奉贤区大叶公路2712号",
    "type": "执行矫正",
    "label": "正常",
    "value": 1
  },
  {
    "time": "2018-02-03",
    "lng": 121.401,
    "lat": 31.01,
    "address": "上海市闵行区",
    "type": "执行矫正",
    "label": "正常",
    "value": 1
  },
  {
    "time": "2018-02-04",
    "lng": 121.401,
    "lat": 31.059,
    "address": "上海市闵行区沪闵路3210号",
    "type": "执行矫正",
    "label": "正常",
    "value": 1
  },
  {
    "time": "2018-03-13",
    "lng": 121.402,
    "lat": 31.008,
    "address": "中国上海市闵行区鹤庆路789号在复旦大学附属上海市第五人民医院附近",
    "type": "执行矫正",
    "label": "正常",
    "value": 4
  },
  {
    "time": "2018-03-13",
    "lng": 121.402,
    "lat": 31.008,
    "address": "中国上海市闵行区鹤庆路811在复旦大学附属上海市第五人民医院附近",
    "type": "执行矫正",
    "label": "正常",
    "value": 4
  },
  {
    "time": "2018-02-03",
    "lng": 121.402,
    "lat": 31.008,
    "address": "上海市闵行区鹤庆路785号",
    "type": "执行矫正",
    "label": "正常",
    "value": 4
  },
  {
    "time": "2018-02-03",
    "lng": 121.402,
    "lat": 31.008,
    "address": "上海市闵行区鹤庆路810弄",
    "type": "执行矫正",
    "label": "正常",
    "value": 4
  },
  {
    "time": "2018-02-03",
    "lng": 121.402,
    "lat": 31.009,
    "address": "上海市闵行区鹤庆路822号",
    "type": "执行矫正",
    "label": "正常",
    "value": 1
  },
  {
    "time": "2018-02-03",
    "lng": 121.402,
    "lat": 31.01,
    "address": "上海市闵行区瑞丽路386弄3号",
    "type": "执行矫正",
    "label": "正常",
    "value": 2
  },
  {
    "time": "2018-02-03",
    "lng": 121.402,
    "lat": 31.01,
    "address": "上海市闵行区",
    "type": "执行矫正",
    "label": "正常",
    "value": 2
  },
  {
    "time": "2018-02-03",
    "lng": 121.403,
    "lat": 31.008,
    "address": "上海市闵行区鹤庆路799",
    "type": "执行矫正",
    "label": "正常",
    "value": 1
  },
  {
    "time": "2018-02-07",
    "lng": 121.404,
    "lat": 30.949,
    "address": "上海市奉贤区",
    "type": "执行矫正",
    "label": "正常",
    "value": 1
  },
  {
    "time": "2018-06-02",
    "lng": 121.404,
    "lat": 30.956,
    "address": "上海市奉贤区云牛路",
    "type": "执行矫正",
    "label": "正常",
    "value": 6
  },
  {
    "time": "2018-06-02",
    "lng": 121.404,
    "lat": 30.956,
    "address": "上海市奉贤区云牛路",
    "type": "执行矫正",
    "label": "正常",
    "value": 6
  },
  {
    "time": "2018-06-01",
    "lng": 121.404,
    "lat": 30.956,
    "address": "上海市奉贤区云牛路",
    "type": "执行矫正",
    "label": "正常",
    "value": 6
  },
  {
    "time": "2018-06-02",
    "lng": 121.404,
    "lat": 30.956,
    "address": "上海市奉贤区云牛路",
    "type": "执行矫正",
    "label": "正常",
    "value": 6
  },
  {
    "time": "2018-06-01",
    "lng": 121.404,
    "lat": 30.956,
    "address": "上海市奉贤区云牛路",
    "type": "执行矫正",
    "label": "正常",
    "value": 6
  },
  {
    "time": "2018-05-31",
    "lng": 121.404,
    "lat": 30.956,
    "address": "上海市奉贤区云牛路",
    "type": "执行矫正",
    "label": "正常",
    "value": 6
  },
  {
    "time": "2018-06-01",
    "lng": 121.404,
    "lat": 31.007,
    "address": "上海市闵行区华宁路22号-临",
    "type": "执行矫正",
    "label": "正常",
    "value": 2
  },
  {
    "time": "2018-06-01",
    "lng": 121.404,
    "lat": 31.007,
    "address": "上海市闵行区华宁路24-1号-临",
    "type": "执行矫正",
    "label": "正常",
    "value": 2
  },
  {
    "time": "2018-05-09",
    "lng": 121.405,
    "lat": 31.047,
    "address": "中国上海市闵行区沪闵路2615号在北桥(地铁站)附近",
    "type": "执行矫正",
    "label": "正常",
    "value": 2
  },
  {
    "time": "2018-05-09",
    "lng": 121.405,
    "lat": 31.047,
    "address": "中国上海市闵行区沪闵路2615号在北桥(地铁站)附近",
    "type": "执行矫正",
    "label": "正常",
    "value": 2
  },
  {
    "time": "2018-01-17",
    "lng": 121.406,
    "lat": 30.945,
    "address": "上海市奉贤区安东南路",
    "type": "执行矫正",
    "label": "正常",
    "value": 1
  },
  {
    "time": "2018-06-01",
    "lng": 121.406,
    "lat": 31.015,
    "address": "上海市闵行区东川路2718弄-21号",
    "type": "执行矫正",
    "label": "正常",
    "value": 3
  },
  {
    "time": "2018-06-01",
    "lng": 121.406,
    "lat": 31.015,
    "address": "上海市闵行区东川路2718弄-21号",
    "type": "执行矫正",
    "label": "正常",
    "value": 3
  },
  {
    "time": "2018-06-01",
    "lng": 121.406,
    "lat": 31.015,
    "address": "上海市闵行区东川路2718弄-21号",
    "type": "执行矫正",
    "label": "正常",
    "value": 3
  },
  {
    "time": "2018-03-25",
    "lng": 121.407,
    "lat": 30.944,
    "address": "上海市奉贤区",
    "type": "执行矫正",
    "label": "正常",
    "value": 1
  },
  {
    "time": "2018-02-04",
    "lng": 121.407,
    "lat": 31.041,
    "address": "上海市闵行区沪闵路2192号",
    "type": "执行矫正",
    "label": "正常",
    "value": 1
  },
  {
    "time": "2018-03-29",
    "lng": 121.41,
    "lat": 30.962,
    "address": "上海市奉贤区大叶公路2998号",
    "type": "执行矫正",
    "label": "正常",
    "value": 1
  },
  {
    "time": "2018-02-07",
    "lng": 121.412,
    "lat": 30.905,
    "address": "上海市奉贤区南亭公路752号",
    "type": "执行矫正",
    "label": "正常",
    "value": 1
  },
  {
    "time": "2018-03-31",
    "lng": 121.412,
    "lat": 30.94,
    "address": "上海市奉贤区",
    "type": "执行矫正",
    "label": "正常",
    "value": 1
  },
  {
    "time": "2018-02-01",
    "lng": 121.412,
    "lat": 31.028,
    "address": "上海市闵行区剑川路1036号",
    "type": "执行矫正",
    "label": "正常",
    "value": 1
  },
  {
    "time": "2018-02-01",
    "lng": 121.413,
    "lat": 31.026,
    "address": "上海市闵行区沪闵路1536号",
    "type": "执行矫正",
    "label": "正常",
    "value": 1
  },
  {
    "time": "2018-02-03",
    "lng": 121.414,
    "lat": 31.024,
    "address": "上海市闵行区沪闵路1416号",
    "type": "执行矫正",
    "label": "正常",
    "value": 1
  },
  {
    "time": "2018-02-01",
    "lng": 121.414,
    "lat": 31.025,
    "address": "上海市闵行区沪闵路1484号",
    "type": "执行矫正",
    "label": "正常",
    "value": 1
  },
  {
    "time": "2018-02-01",
    "lng": 121.415,
    "lat": 30.963,
    "address": "上海市奉贤区大叶公路3152号",
    "type": "执行矫正",
    "label": "正常",
    "value": 1
  },
  {
    "time": "2018-02-01",
    "lng": 121.417,
    "lat": 31.017,
    "address": "上海市闵行区沪闵路651号",
    "type": "执行矫正",
    "label": "正常",
    "value": 1
  },
  {
    "time": "2018-03-10",
    "lng": 121.417,
    "lat": 31.06,
    "address": "中国上海市闵行区都会路1707号在全方位科技园附近",
    "type": "执行矫正",
    "label": "正常",
    "value": 2
  },
  {
    "time": "2018-03-10",
    "lng": 121.417,
    "lat": 31.06,
    "address": "中国上海市闵行区都会路1711号在上海全方位数码科技有限公司-电子元器厂附近",
    "type": "执行矫正",
    "label": "正常",
    "value": 2
  },
  {
    "time": "2018-02-01",
    "lng": 121.42,
    "lat": 31.006,
    "address": "上海市闵行区沪闵路211号",
    "type": "执行矫正",
    "label": "正常",
    "value": 1
  },
  {
    "time": "2018-02-02",
    "lng": 121.421,
    "lat": 30.965,
    "address": "上海市奉贤区大叶公路3151号",
    "type": "执行矫正",
    "label": "正常",
    "value": 1
  },
  {
    "time": "2018-02-04",
    "lng": 121.422,
    "lat": 31.031,
    "address": "上海市闵行区剑川路890号",
    "type": "执行矫正",
    "label": "正常",
    "value": 1
  },
  {
    "time": "2018-05-29",
    "lng": 121.423,
    "lat": 31.047,
    "address": "上海市闵行区金塔东路299",
    "type": "执行矫正",
    "label": "正常",
    "value": 1
  },
  {
    "time": "2018-02-03",
    "lng": 121.424,
    "lat": 30.998,
    "address": "上海市奉贤区闵浦二桥",
    "type": "执行矫正",
    "label": "正常",
    "value": 1
  },
  {
    "time": "2018-02-07",
    "lng": 121.425,
    "lat": 30.937,
    "address": "上海市奉贤区",
    "type": "执行矫正",
    "label": "正常",
    "value": 1
  },
  {
    "time": "2018-03-28",
    "lng": 121.426,
    "lat": 30.966,
    "address": "上海市奉贤区大叶公路3275号",
    "type": "执行矫正",
    "label": "正常",
    "value": 2
  },
  {
    "time": "2018-02-02",
    "lng": 121.426,
    "lat": 30.966,
    "address": "上海市奉贤区大叶公路3277号",
    "type": "执行矫正",
    "label": "正常",
    "value": 2
  },
  {
    "time": "2018-02-04",
    "lng": 121.429,
    "lat": 30.989,
    "address": "上海市奉贤区西闸公路1592号",
    "type": "执行矫正",
    "label": "正常",
    "value": 1
  },
  {
    "time": "2018-03-31",
    "lng": 121.432,
    "lat": 31.047,
    "address": "上海市闵行区放鹤路1616号",
    "type": "执行矫正",
    "label": "正常",
    "value": 1
  },
  {
    "time": "2018-02-04",
    "lng": 121.434,
    "lat": 30.968,
    "address": "上海市奉贤区大叶公路3495号",
    "type": "执行矫正",
    "label": "正常",
    "value": 1
  },
  {
    "time": "2018-01-17",
    "lng": 121.435,
    "lat": 30.94,
    "address": "上海市奉贤区奉浦大道1694号",
    "type": "执行矫正",
    "label": "正常",
    "value": 1
  },
  {
    "time": "2018-02-04",
    "lng": 121.435,
    "lat": 30.974,
    "address": "上海市奉贤区沪杭公路809号",
    "type": "执行矫正",
    "label": "正常",
    "value": 1
  },
  {
    "time": "2018-02-04",
    "lng": 121.435,
    "lat": 30.999,
    "address": "上海市奉贤区西闸公路",
    "type": "执行矫正",
    "label": "正常",
    "value": 1
  },
  {
    "time": "2018-02-01",
    "lng": 121.436,
    "lat": 30.973,
    "address": "上海市奉贤区沪杭公路740号",
    "type": "执行矫正",
    "label": "正常",
    "value": 1
  },
  {
    "time": "2018-02-07",
    "lng": 121.437,
    "lat": 30.908,
    "address": "上海市奉贤区南亭公路523号",
    "type": "执行矫正",
    "label": "正常",
    "value": 1
  },
  {
    "time": "2018-02-03",
    "lng": 121.437,
    "lat": 30.969,
    "address": "上海市奉贤区大叶公路3567号",
    "type": "执行矫正",
    "label": "正常",
    "value": 1
  },
  {
    "time": "2018-03-29",
    "lng": 121.437,
    "lat": 30.991,
    "address": "上海市奉贤区",
    "type": "执行矫正",
    "label": "正常",
    "value": 1
  },
  {
    "time": "2018-02-04",
    "lng": 121.437,
    "lat": 31.008,
    "address": "上海市闵行区",
    "type": "执行矫正",
    "label": "正常",
    "value": 1
  },
  {
    "time": "2018-02-04",
    "lng": 121.438,
    "lat": 30.965,
    "address": "上海市奉贤区沪杭公路989",
    "type": "执行矫正",
    "label": "正常",
    "value": 1
  },
  {
    "time": "2018-03-29",
    "lng": 121.438,
    "lat": 30.969,
    "address": "上海市奉贤区大叶公路3591号",
    "type": "执行矫正",
    "label": "正常",
    "value": 1
  },
  {
    "time": "2018-03-31",
    "lng": 121.438,
    "lat": 31.007,
    "address": "上海市奉贤区",
    "type": "执行矫正",
    "label": "正常",
    "value": 1
  },
  {
    "time": "2018-02-02",
    "lng": 121.439,
    "lat": 30.963,
    "address": "上海市奉贤区沪杭公路992-1-临",
    "type": "执行矫正",
    "label": "正常",
    "value": 1
  },
  {
    "time": "2018-02-02",
    "lng": 121.439,
    "lat": 30.964,
    "address": "上海市奉贤区沪杭公路1039",
    "type": "执行矫正",
    "label": "正常",
    "value": 3
  },
  {
    "time": "2018-02-04",
    "lng": 121.439,
    "lat": 30.964,
    "address": "上海市奉贤区沪杭公路1023号",
    "type": "执行矫正",
    "label": "正常",
    "value": 3
  },
  {
    "time": "2018-02-04",
    "lng": 121.439,
    "lat": 30.964,
    "address": "上海市奉贤区沪杭公路1033-临",
    "type": "执行矫正",
    "label": "正常",
    "value": 3
  },
  {
    "time": "2018-02-17",
    "lng": 121.44,
    "lat": 30.97,
    "address": "上海市奉贤区大叶公路3647号",
    "type": "执行矫正",
    "label": "正常",
    "value": 1
  },
  {
    "time": "2018-06-02",
    "lng": 121.441,
    "lat": 30.991,
    "address": "上海市奉贤区沪杭公路418弄",
    "type": "执行矫正",
    "label": "正常",
    "value": 2
  },
  {
    "time": "2018-05-29",
    "lng": 121.441,
    "lat": 30.991,
    "address": "上海市奉贤区沪杭公路421",
    "type": "执行矫正",
    "label": "正常",
    "value": 2
  },
  {
    "time": "2018-02-02",
    "lng": 121.444,
    "lat": 30.946,
    "address": "上海市奉贤区沪杭公路1629号",
    "type": "执行矫正",
    "label": "正常",
    "value": 1
  },
  {
    "time": "2018-02-01",
    "lng": 121.444,
    "lat": 31.049,
    "address": "上海市闵行区放鹤路1088号",
    "type": "执行矫正",
    "label": "正常",
    "value": 1
  },
  {
    "time": "2018-02-02",
    "lng": 121.445,
    "lat": 30.944,
    "address": "上海市奉贤区沪杭公路1661号",
    "type": "执行矫正",
    "label": "正常",
    "value": 1
  },
  {
    "time": "2018-03-28",
    "lng": 121.445,
    "lat": 30.972,
    "address": "上海市奉贤区大叶公路3783号",
    "type": "执行矫正",
    "label": "正常",
    "value": 1
  },
  {
    "time": "2018-03-31",
    "lng": 121.446,
    "lat": 30.943,
    "address": "上海市奉贤区奉浦大道633号",
    "type": "执行矫正",
    "label": "正常",
    "value": 1
  },
  {
    "time": "2018-02-17",
    "lng": 121.446,
    "lat": 30.993,
    "address": "上海市奉贤区S4(沪金高速)",
    "type": "执行矫正",
    "label": "正常",
    "value": 1
  },
  {
    "time": "2018-02-02",
    "lng": 121.449,
    "lat": 30.931,
    "address": "上海市奉贤区沪杭公路1811号",
    "type": "执行矫正",
    "label": "正常",
    "value": 1
  },
  {
    "time": "2018-02-02",
    "lng": 121.452,
    "lat": 30.932,
    "address": "上海市奉贤区航南公路5858",
    "type": "执行矫正",
    "label": "正常",
    "value": 1
  },
  {
    "time": "2018-06-02",
    "lng": 121.453,
    "lat": 31.048,
    "address": "上海市闵行区陆家塘路",
    "type": "执行矫正",
    "label": "正常",
    "value": 1
  },
  {
    "time": "2018-02-07",
    "lng": 121.454,
    "lat": 30.945,
    "address": "上海市奉贤区奉浦大道115号",
    "type": "执行矫正",
    "label": "正常",
    "value": 1
  },
  {
    "time": "2018-03-25",
    "lng": 121.455,
    "lat": 30.945,
    "address": "上海市奉贤区奉浦大道97号",
    "type": "执行矫正",
    "label": "正常",
    "value": 2
  },
  {
    "time": "2018-01-17",
    "lng": 121.455,
    "lat": 30.945,
    "address": "上海市奉贤区奉浦大道109号",
    "type": "执行矫正",
    "label": "正常",
    "value": 2
  },
  {
    "time": "2018-02-07",
    "lng": 121.456,
    "lat": 30.913,
    "address": "上海市奉贤区人民中路8",
    "type": "执行矫正",
    "label": "正常",
    "value": 1
  },
  {
    "time": "2018-03-23",
    "lng": 121.456,
    "lat": 30.945,
    "address": "中国上海市奉贤区奉浦大道99号-103室在上海尊爵建筑装饰工程有限公司附近",
    "type": "执行矫正",
    "label": "正常",
    "value": 1
  },
  {
    "time": "2018-03-23",
    "lng": 121.457,
    "lat": 30.945,
    "address": "中国上海市奉贤区奉浦大道105号在上海胜鼎数控模具培训中心(奉贤校区)附近",
    "type": "执行矫正",
    "label": "正常",
    "value": 1
  },
  {
    "time": "2018-02-07",
    "lng": 121.46,
    "lat": 30.914,
    "address": "上海市奉贤区南奉公路9500号",
    "type": "执行矫正",
    "label": "正常",
    "value": 1
  },
  {
    "time": "2018-02-02",
    "lng": 121.46,
    "lat": 30.932,
    "address": "上海市奉贤区环城东路792号",
    "type": "执行矫正",
    "label": "正常",
    "value": 1
  },
  {
    "time": "2018-02-02",
    "lng": 121.462,
    "lat": 30.924,
    "address": "上海市奉贤区环城东路1046号",
    "type": "执行矫正",
    "label": "正常",
    "value": 1
  },
  {
    "time": "2018-03-12",
    "lng": 121.464,
    "lat": 30.915,
    "address": "中国上海市奉贤区南奉公路9275弄11在育秀三居小区附近",
    "type": "执行矫正",
    "label": "正常",
    "value": 2
  },
  {
    "time": "2018-03-12",
    "lng": 121.464,
    "lat": 30.915,
    "address": "中国上海市奉贤区南奉公路9275弄11在育秀三居小区附近",
    "type": "执行矫正",
    "label": "正常",
    "value": 2
  },
  {
    "time": "2018-02-02",
    "lng": 121.464,
    "lat": 30.918,
    "address": "上海市奉贤区环城东路1314",
    "type": "执行矫正",
    "label": "正常",
    "value": 1
  },
  {
    "time": "2018-03-31",
    "lng": 121.464,
    "lat": 30.949,
    "address": "上海市奉贤区",
    "type": "执行矫正",
    "label": "正常",
    "value": 1
  },
  {
    "time": "2018-03-15",
    "lng": 121.465,
    "lat": 30.914,
    "address": "中国上海市奉贤区南奉公路9275弄-25-、26号在育秀三居小区附近",
    "type": "执行矫正",
    "label": "正常",
    "value": 4
  },
  {
    "time": "2018-03-15",
    "lng": 121.465,
    "lat": 30.914,
    "address": "中国上海市奉贤区南奉公路9275弄-25-、26号在育秀三居小区附近",
    "type": "执行矫正",
    "label": "正常",
    "value": 4
  },
  {
    "time": "2018-03-07",
    "lng": 121.465,
    "lat": 30.914,
    "address": "中国上海市奉贤区环城东路1450号在育秀三居小区附近",
    "type": "执行矫正",
    "label": "正常",
    "value": 4
  },
  {
    "time": "2018-03-07",
    "lng": 121.465,
    "lat": 30.914,
    "address": "中国上海市奉贤区环城东路1450号在育秀三居小区附近",
    "type": "执行矫正",
    "label": "正常",
    "value": 4
  },
  {
    "time": "2018-02-02",
    "lng": 121.465,
    "lat": 30.916,
    "address": "上海市奉贤区南奉公路8994号",
    "type": "执行矫正",
    "label": "正常",
    "value": 1
  },
  {
    "time": "2018-02-07",
    "lng": 121.469,
    "lat": 30.917,
    "address": "上海市奉贤区南奉公路8978号",
    "type": "执行矫正",
    "label": "正常",
    "value": 1
  },
  {
    "time": "2018-05-27",
    "lng": 121.471,
    "lat": 30.978,
    "address": "中国上海市奉贤区红新路1138在上海三晶特种涂料厂-西南门附近",
    "type": "执行矫正",
    "label": "正常",
    "value": 2
  },
  {
    "time": "2018-05-27",
    "lng": 121.471,
    "lat": 30.978,
    "address": "中国上海市奉贤区红新路1138在上海三晶特种涂料厂-西南门附近",
    "type": "执行矫正",
    "label": "正常",
    "value": 2
  },
  {
    "time": "2018-05-09",
    "lng": 121.471,
    "lat": 30.98,
    "address": "中国上海市奉贤区红新路18号在上海天旺宾馆附近",
    "type": "执行矫正",
    "label": "正常",
    "value": 1
  },
  {
    "time": "2018-03-31",
    "lng": 121.474,
    "lat": 30.946,
    "address": "上海市奉贤区",
    "type": "执行矫正",
    "label": "正常",
    "value": 1
  },
  {
    "time": "2018-05-30",
    "lng": 121.474,
    "lat": 30.978,
    "address": "上海市奉贤区Y365(望园路)",
    "type": "执行矫正",
    "label": "正常",
    "value": 1
  },
  {
    "time": "2018-02-02",
    "lng": 121.475,
    "lat": 30.917,
    "address": "上海市奉贤区南奉公路8797弄-5-10号",
    "type": "执行矫正",
    "label": "正常",
    "value": 3
  },
  {
    "time": "2018-02-02",
    "lng": 121.475,
    "lat": 30.917,
    "address": "上海市奉贤区",
    "type": "执行矫正",
    "label": "正常",
    "value": 3
  },
  {
    "time": "2018-02-02",
    "lng": 121.475,
    "lat": 30.917,
    "address": "上海市奉贤区",
    "type": "执行矫正",
    "label": "正常",
    "value": 3
  },
  {
    "time": "2018-02-07",
    "lng": 121.475,
    "lat": 30.941,
    "address": "上海市奉贤区",
    "type": "执行矫正",
    "label": "正常",
    "value": 1
  },
  {
    "time": "2018-02-02",
    "lng": 121.476,
    "lat": 30.917,
    "address": "上海市奉贤区",
    "type": "执行矫正",
    "label": "正常",
    "value": 3
  },
  {
    "time": "2018-02-02",
    "lng": 121.476,
    "lat": 30.917,
    "address": "上海市奉贤区",
    "type": "执行矫正",
    "label": "正常",
    "value": 3
  },
  {
    "time": "2018-02-02",
    "lng": 121.476,
    "lat": 30.917,
    "address": "上海市奉贤区",
    "type": "执行矫正",
    "label": "正常",
    "value": 3
  },
  {
    "time": "2018-03-25",
    "lng": 121.476,
    "lat": 30.95,
    "address": "上海市奉贤区金齐路1018号",
    "type": "执行矫正",
    "label": "正常",
    "value": 1
  },
  {
    "time": "2018-02-02",
    "lng": 121.478,
    "lat": 30.918,
    "address": "上海市奉贤区莘奉公路1484号",
    "type": "执行矫正",
    "label": "正常",
    "value": 1
  },
  {
    "time": "2018-03-31",
    "lng": 121.478,
    "lat": 30.934,
    "address": "上海市奉贤区",
    "type": "执行矫正",
    "label": "正常",
    "value": 1
  },
  {
    "time": "2018-02-01",
    "lng": 121.478,
    "lat": 30.951,
    "address": "上海市奉贤区",
    "type": "执行矫正",
    "label": "正常",
    "value": 1
  },
  {
    "time": "2018-02-19",
    "lng": 121.48,
    "lat": 30.917,
    "address": "中国上海市奉贤区奉贤公路8580号在百联南桥购物中心-西2门附近",
    "type": "执行矫正",
    "label": "正常",
    "value": 1
  },
  {
    "time": "2018-02-02",
    "lng": 121.483,
    "lat": 30.92,
    "address": "上海市奉贤区南奉公路7846号",
    "type": "执行矫正",
    "label": "正常",
    "value": 1
  },
  {
    "time": "2018-02-02",
    "lng": 121.484,
    "lat": 30.92,
    "address": "上海市奉贤区南奉公路7557号",
    "type": "执行矫正",
    "label": "正常",
    "value": 1
  },
  {
    "time": "2018-03-25",
    "lng": 121.484,
    "lat": 31.057,
    "address": "中国上海市闵行区杉林路在秋思桥附近",
    "type": "执行矫正",
    "label": "潜在异常",
    "value": 2
  },
  {
    "time": "2018-03-25",
    "lng": 121.484,
    "lat": 31.057,
    "address": "中国上海市闵行区杉林路在秋思桥附近",
    "type": "执行矫正",
    "label": "潜在异常",
    "value": 2
  },
  {
    "time": "2018-03-30",
    "lng": 121.486,
    "lat": 31.053,
    "address": "中国上海市闵行区浦放路在杜行镇附近",
    "type": "执行矫正",
    "label": "潜在异常",
    "value": 1
  },
  {
    "time": "2018-02-02",
    "lng": 121.487,
    "lat": 30.921,
    "address": "上海市奉贤区南奉公路7564号",
    "type": "执行矫正",
    "label": "正常",
    "value": 1
  },
  {
    "time": "2018-03-25",
    "lng": 121.487,
    "lat": 30.935,
    "address": "中国上海市奉贤区Y368(金海公路)在年丰路龙潭沟桥附近",
    "type": "执行矫正",
    "label": "正常",
    "value": 3
  },
  {
    "time": "2018-03-08",
    "lng": 121.487,
    "lat": 30.935,
    "address": "中国上海市奉贤区Y368(金海公路)在年丰路龙潭沟桥附近",
    "type": "执行矫正",
    "label": "正常",
    "value": 3
  },
  {
    "time": "2018-03-27",
    "lng": 121.487,
    "lat": 30.935,
    "address": "中国上海市奉贤区Y368(金海公路)在年丰路龙潭沟桥附近",
    "type": "执行矫正",
    "label": "正常",
    "value": 3
  },
  {
    "time": "2018-03-25",
    "lng": 121.487,
    "lat": 30.936,
    "address": "上海市奉贤区",
    "type": "执行矫正",
    "label": "正常",
    "value": 1
  },
  {
    "time": "2018-03-31",
    "lng": 121.488,
    "lat": 30.935,
    "address": "上海市奉贤区",
    "type": "执行矫正",
    "label": "正常",
    "value": 1
  },
  {
    "time": "2018-03-28",
    "lng": 121.488,
    "lat": 31.059,
    "address": "中国上海市闵行区沈杜公路在枯荷桥附近",
    "type": "执行矫正",
    "label": "潜在异常",
    "value": 1
  },
  {
    "time": "2018-03-27",
    "lng": 121.489,
    "lat": 30.935,
    "address": "中国上海市奉贤区湖堤路在合景万景峰附近",
    "type": "执行矫正",
    "label": "正常",
    "value": 10
  },
  {
    "time": "2018-03-31",
    "lng": 121.489,
    "lat": 30.935,
    "address": "上海市奉贤区",
    "type": "执行矫正",
    "label": "正常",
    "value": 10
  },
  {
    "time": "2018-03-31",
    "lng": 121.489,
    "lat": 30.935,
    "address": "上海市奉贤区",
    "type": "执行矫正",
    "label": "正常",
    "value": 10
  },
  {
    "time": "2018-03-31",
    "lng": 121.489,
    "lat": 30.935,
    "address": "上海市奉贤区",
    "type": "执行矫正",
    "label": "正常",
    "value": 10
  },
  {
    "time": "2018-03-30",
    "lng": 121.489,
    "lat": 30.935,
    "address": "中国上海市奉贤区湖堤路在合景万景峰附近",
    "type": "执行矫正",
    "label": "正常",
    "value": 10
  },
  {
    "time": "2018-03-30",
    "lng": 121.489,
    "lat": 30.935,
    "address": "中国上海市奉贤区湖堤路在合景万景峰附近",
    "type": "执行矫正",
    "label": "正常",
    "value": 10
  },
  {
    "time": "2018-03-30",
    "lng": 121.489,
    "lat": 30.935,
    "address": "中国上海市奉贤区湖堤路在合景万景峰附近",
    "type": "执行矫正",
    "label": "正常",
    "value": 10
  },
  {
    "time": "2018-03-08",
    "lng": 121.489,
    "lat": 30.935,
    "address": "中国上海市奉贤区湖堤路在合景万景峰附近",
    "type": "执行矫正",
    "label": "正常",
    "value": 10
  },
  {
    "time": "2018-03-22",
    "lng": 121.489,
    "lat": 30.935,
    "address": "中国上海市奉贤区湖堤路在合景万景峰附近",
    "type": "执行矫正",
    "label": "正常",
    "value": 10
  },
  {
    "time": "2018-03-22",
    "lng": 121.489,
    "lat": 30.935,
    "address": "中国上海市奉贤区湖堤路在合景万景峰附近",
    "type": "执行矫正",
    "label": "正常",
    "value": 10
  },
  {
    "time": "2018-03-28",
    "lng": 121.489,
    "lat": 31.059,
    "address": "中国上海市闵行区沈杜公路在银杏醉秋附近",
    "type": "执行矫正",
    "label": "潜在异常",
    "value": 1
  },
  {
    "time": "2018-02-07",
    "lng": 121.49,
    "lat": 30.924,
    "address": "上海市奉贤区",
    "type": "执行矫正",
    "label": "正常",
    "value": 1
  },
  {
    "time": "2018-03-25",
    "lng": 121.49,
    "lat": 30.932,
    "address": "上海市奉贤区",
    "type": "执行矫正",
    "label": "正常",
    "value": 1
  },
  {
    "time": "2018-03-25",
    "lng": 121.49,
    "lat": 30.935,
    "address": "上海市奉贤区",
    "type": "执行矫正",
    "label": "正常",
    "value": 1
  },
  {
    "time": "2018-05-30",
    "lng": 121.49,
    "lat": 31.078,
    "address": "上海市闵行区",
    "type": "执行矫正",
    "label": "潜在异常",
    "value": 1
  },
  {
    "time": "2018-03-07",
    "lng": 121.491,
    "lat": 30.92,
    "address": "中国上海市奉贤区金海路181号在南奉公路庙泾桥附近",
    "type": "执行矫正",
    "label": "正常",
    "value": 3
  },
  {
    "time": "2018-03-07",
    "lng": 121.491,
    "lat": 30.92,
    "address": "中国上海市奉贤区金海路181号在商务会议楼附近",
    "type": "执行矫正",
    "label": "正常",
    "value": 3
  },
  {
    "time": "2018-02-07",
    "lng": 121.491,
    "lat": 30.92,
    "address": "上海市奉贤区金海公路3843号",
    "type": "执行矫正",
    "label": "正常",
    "value": 3
  },
  {
    "time": "2018-02-02",
    "lng": 121.491,
    "lat": 30.923,
    "address": "上海市奉贤区沪杭路24号",
    "type": "执行矫正",
    "label": "正常",
    "value": 1
  },
  {
    "time": "2018-02-01",
    "lng": 121.492,
    "lat": 30.956,
    "address": "上海市奉贤区金齐路276",
    "type": "执行矫正",
    "label": "正常",
    "value": 1
  },
  {
    "time": "2018-02-02",
    "lng": 121.493,
    "lat": 30.912,
    "address": "上海市奉贤区金海路3438号",
    "type": "执行矫正",
    "label": "正常",
    "value": 2
  },
  {
    "time": "2018-02-07",
    "lng": 121.493,
    "lat": 30.912,
    "address": "上海市奉贤区金海路168号-b105-、b106号",
    "type": "执行矫正",
    "label": "正常",
    "value": 2
  },
  {
    "time": "2018-05-11",
    "lng": 121.493,
    "lat": 31.054,
    "address": "中国上海市闵行区S32(申嘉湖高速)在晓宇电力建设工程有限公司市南电缆工程队附近",
    "type": "执行矫正",
    "label": "潜在异常",
    "value": 1
  },
  {
    "time": "2018-05-11",
    "lng": 121.494,
    "lat": 31.054,
    "address": "中国上海市闵行区浦放路在晓宇电力建设工程有限公司市南电缆工程队附近",
    "type": "执行矫正",
    "label": "潜在异常",
    "value": 1
  },
  {
    "time": "2018-02-02",
    "lng": 121.495,
    "lat": 30.902,
    "address": "上海市奉贤区金海公路3265",
    "type": "执行矫正",
    "label": "正常",
    "value": 1
  },
  {
    "time": "2018-02-02",
    "lng": 121.496,
    "lat": 30.903,
    "address": "上海市奉贤区金海公路2898弄",
    "type": "执行矫正",
    "label": "正常",
    "value": 7
  },
  {
    "time": "2018-02-02",
    "lng": 121.496,
    "lat": 30.903,
    "address": "上海市奉贤区金海公路2898弄-25号",
    "type": "执行矫正",
    "label": "正常",
    "value": 7
  },
  {
    "time": "2018-02-02",
    "lng": 121.496,
    "lat": 30.903,
    "address": "上海市奉贤区金海公路2898弄-25号",
    "type": "执行矫正",
    "label": "正常",
    "value": 7
  },
  {
    "time": "2018-02-02",
    "lng": 121.496,
    "lat": 30.903,
    "address": "上海市奉贤区金海公路2898弄-24-～25号",
    "type": "执行矫正",
    "label": "正常",
    "value": 7
  },
  {
    "time": "2018-02-02",
    "lng": 121.496,
    "lat": 30.903,
    "address": "上海市奉贤区金海公路2898弄-6号",
    "type": "执行矫正",
    "label": "正常",
    "value": 7
  },
  {
    "time": "2018-02-07",
    "lng": 121.496,
    "lat": 30.903,
    "address": "上海市奉贤区金海公路2898弄-6号",
    "type": "执行矫正",
    "label": "正常",
    "value": 7
  },
  {
    "time": "2018-03-07",
    "lng": 121.496,
    "lat": 30.903,
    "address": "中国上海市奉贤区金海公路2898弄-23号在百特陶瓷附近",
    "type": "执行矫正",
    "label": "正常",
    "value": 7
  },
  {
    "time": "2018-02-07",
    "lng": 121.497,
    "lat": 30.904,
    "address": "上海市奉贤区金海公路2898弄-7号",
    "type": "执行矫正",
    "label": "正常",
    "value": 1
  },
  {
    "time": "2018-05-14",
    "lng": 121.497,
    "lat": 31.059,
    "address": "中国上海市闵行区沈杜公路4300号在上海浦江郊野公园附近",
    "type": "执行矫正",
    "label": "潜在异常",
    "value": 1
  },
  {
    "time": "2018-01-17",
    "lng": 121.501,
    "lat": 30.911,
    "address": "上海市奉贤区望钱路171号",
    "type": "执行矫正",
    "label": "正常",
    "value": 1
  },
  {
    "time": "2018-02-01",
    "lng": 121.511,
    "lat": 30.962,
    "address": "上海市奉贤区",
    "type": "执行矫正",
    "label": "正常",
    "value": 1
  },
  {
    "time": "2018-03-24",
    "lng": 121.513,
    "lat": 30.937,
    "address": "中国上海市奉贤区贤浦路在金域华庭附近",
    "type": "执行矫正",
    "label": "正常",
    "value": 1
  },
  {
    "time": "2018-02-28",
    "lng": 121.519,
    "lat": 31.207,
    "address": "中国上海市浦东新区北园路171在上海儿童医学中心附近",
    "type": "执行矫正",
    "label": "潜在异常",
    "value": 1
  },
  {
    "time": "2018-03-31",
    "lng": 121.524,
    "lat": 31.056,
    "address": "上海市闵行区S32(申嘉湖高速)",
    "type": "执行矫正",
    "label": "潜在异常",
    "value": 1
  },
  {
    "time": "2018-02-01",
    "lng": 121.525,
    "lat": 31.068,
    "address": "上海市闵行区鹤坡路65号",
    "type": "执行矫正",
    "label": "潜在异常",
    "value": 2
  },
  {
    "time": "2018-02-01",
    "lng": 121.525,
    "lat": 31.068,
    "address": "上海市闵行区鹤坡路65号",
    "type": "执行矫正",
    "label": "潜在异常",
    "value": 2
  },
  {
    "time": "2018-02-01",
    "lng": 121.525,
    "lat": 31.069,
    "address": "上海市闵行区鹤坡路83弄-1-～11号",
    "type": "执行矫正",
    "label": "潜在异常",
    "value": 2
  },
  {
    "time": "2018-02-01",
    "lng": 121.525,
    "lat": 31.069,
    "address": "上海市闵行区鹤坡路99号",
    "type": "执行矫正",
    "label": "潜在异常",
    "value": 2
  },
  {
    "time": "2018-02-01",
    "lng": 121.526,
    "lat": 31.057,
    "address": "上海市闵行区",
    "type": "执行矫正",
    "label": "潜在异常",
    "value": 1
  },
  {
    "time": "2018-02-01",
    "lng": 121.529,
    "lat": 31.068,
    "address": "上海市闵行区谈中路102号",
    "type": "执行矫正",
    "label": "潜在异常",
    "value": 1
  },
  {
    "time": "2018-02-01",
    "lng": 121.532,
    "lat": 31.082,
    "address": "上海市闵行区",
    "type": "执行矫正",
    "label": "潜在异常",
    "value": 1
  },
  {
    "time": "2018-02-01",
    "lng": 121.535,
    "lat": 31.056,
    "address": "上海市闵行区Y057(召楼路)",
    "type": "执行矫正",
    "label": "潜在异常",
    "value": 1
  },
  {
    "time": "2018-02-01",
    "lng": 121.536,
    "lat": 30.977,
    "address": "上海市奉贤区",
    "type": "执行矫正",
    "label": "正常",
    "value": 1
  },
  {
    "time": "2018-02-01",
    "lng": 121.54,
    "lat": 31.119,
    "address": "上海市浦东新区杨高南路6108号",
    "type": "执行矫正",
    "label": "潜在异常",
    "value": 1
  },
  {
    "time": "2018-02-01",
    "lng": 121.546,
    "lat": 31.139,
    "address": "上海市浦东新区康梧路158号",
    "type": "执行矫正",
    "label": "潜在异常",
    "value": 1
  },
  {
    "time": "2018-03-31",
    "lng": 121.547,
    "lat": 31.065,
    "address": "上海市浦东新区",
    "type": "执行矫正",
    "label": "潜在异常",
    "value": 6
  },
  {
    "time": "2018-03-31",
    "lng": 121.547,
    "lat": 31.065,
    "address": "上海市浦东新区",
    "type": "执行矫正",
    "label": "潜在异常",
    "value": 6
  },
  {
    "time": "2018-03-31",
    "lng": 121.547,
    "lat": 31.065,
    "address": "上海市浦东新区",
    "type": "执行矫正",
    "label": "潜在异常",
    "value": 6
  },
  {
    "time": "2018-03-15",
    "lng": 121.547,
    "lat": 31.065,
    "address": "中国上海市浦东新区S32航头服务区在航头服务区附近",
    "type": "执行矫正",
    "label": "潜在异常",
    "value": 6
  },
  {
    "time": "2018-03-15",
    "lng": 121.547,
    "lat": 31.065,
    "address": "中国上海市浦东新区S32航头服务区在航头服务区附近",
    "type": "执行矫正",
    "label": "潜在异常",
    "value": 6
  },
  {
    "time": "2018-03-31",
    "lng": 121.547,
    "lat": 31.065,
    "address": "上海市浦东新区",
    "type": "执行矫正",
    "label": "潜在异常",
    "value": 6
  },
  {
    "time": "2018-02-01",
    "lng": 121.547,
    "lat": 31.153,
    "address": "上海市浦东新区康凌路39号",
    "type": "执行矫正",
    "label": "潜在异常",
    "value": 3
  },
  {
    "time": "2018-02-01",
    "lng": 121.547,
    "lat": 31.153,
    "address": "上海市浦东新区康凌路39号",
    "type": "执行矫正",
    "label": "潜在异常",
    "value": 3
  },
  {
    "time": "2018-02-01",
    "lng": 121.547,
    "lat": 31.153,
    "address": "上海市浦东新区康凌路39号",
    "type": "执行矫正",
    "label": "潜在异常",
    "value": 3
  },
  {
    "time": "2018-02-01",
    "lng": 121.547,
    "lat": 31.154,
    "address": "上海市浦东新区康凌路39号",
    "type": "执行矫正",
    "label": "潜在异常",
    "value": 1
  },
  {
    "time": "2018-02-01",
    "lng": 121.548,
    "lat": 31.096,
    "address": "上海市闵行区联星路88号",
    "type": "执行矫正",
    "label": "潜在异常",
    "value": 1
  },
  {
    "time": "2018-02-01",
    "lng": 121.548,
    "lat": 31.153,
    "address": "上海市浦东新区康意路406",
    "type": "执行矫正",
    "label": "潜在异常",
    "value": 1
  },
  {
    "time": "2018-02-01",
    "lng": 121.551,
    "lat": 31.151,
    "address": "上海市浦东新区康花路224号",
    "type": "执行矫正",
    "label": "潜在异常",
    "value": 1
  },
  {
    "time": "2018-02-01",
    "lng": 121.556,
    "lat": 31.079,
    "address": "上海市闵行区",
    "type": "执行矫正",
    "label": "潜在异常",
    "value": 1
  },
  {
    "time": "2018-02-01",
    "lng": 121.556,
    "lat": 31.152,
    "address": "上海市浦东新区康花路96号",
    "type": "执行矫正",
    "label": "潜在异常",
    "value": 1
  },
  {
    "time": "2018-02-01",
    "lng": 121.557,
    "lat": 31.153,
    "address": "上海市浦东新区康花路58-4号",
    "type": "执行矫正",
    "label": "潜在异常",
    "value": 3
  },
  {
    "time": "2018-02-01",
    "lng": 121.557,
    "lat": 31.153,
    "address": "上海市浦东新区康花路58-2号",
    "type": "执行矫正",
    "label": "潜在异常",
    "value": 3
  },
  {
    "time": "2018-02-01",
    "lng": 121.557,
    "lat": 31.153,
    "address": "上海市浦东新区康花路58-1号",
    "type": "执行矫正",
    "label": "潜在异常",
    "value": 3
  },
  {
    "time": "2018-02-01",
    "lng": 121.561,
    "lat": 31.154,
    "address": "上海市浦东新区沪南路2502号",
    "type": "执行矫正",
    "label": "潜在异常",
    "value": 1
  },
  {
    "time": "2018-02-01",
    "lng": 121.561,
    "lat": 31.155,
    "address": "上海市浦东新区沪南路2420号",
    "type": "执行矫正",
    "label": "潜在异常",
    "value": 2
  },
  {
    "time": "2018-02-01",
    "lng": 121.561,
    "lat": 31.155,
    "address": "上海市浦东新区沪南路2431号",
    "type": "执行矫正",
    "label": "潜在异常",
    "value": 2
  },
  {
    "time": "2018-02-01",
    "lng": 121.562,
    "lat": 30.993,
    "address": "上海市奉贤区航南公路1398号",
    "type": "执行矫正",
    "label": "潜在异常",
    "value": 1
  },
  {
    "time": "2018-02-01",
    "lng": 121.562,
    "lat": 31.152,
    "address": "上海市浦东新区沪南路2538号",
    "type": "执行矫正",
    "label": "潜在异常",
    "value": 1
  },
  {
    "time": "2018-02-01",
    "lng": 121.563,
    "lat": 31.123,
    "address": "上海市浦东新区沪南公路3168号",
    "type": "执行矫正",
    "label": "潜在异常",
    "value": 1
  },
  {
    "time": "2018-02-01",
    "lng": 121.563,
    "lat": 31.147,
    "address": "上海市浦东新区沪南公路3217号",
    "type": "执行矫正",
    "label": "潜在异常",
    "value": 1
  },
  {
    "time": "2018-02-01",
    "lng": 121.564,
    "lat": 31.116,
    "address": "上海市浦东新区年家浜路521号",
    "type": "执行矫正",
    "label": "潜在异常",
    "value": 1
  },
  {
    "time": "2018-03-31",
    "lng": 121.57,
    "lat": 31.081,
    "address": "上海市浦东新区",
    "type": "执行矫正",
    "label": "潜在异常",
    "value": 1
  },
  {
    "time": "2018-02-01",
    "lng": 121.575,
    "lat": 31.114,
    "address": "上海市浦东新区康沈路1846号",
    "type": "执行矫正",
    "label": "潜在异常",
    "value": 1
  },
  {
    "time": "2018-02-01",
    "lng": 121.577,
    "lat": 31.099,
    "address": "上海市浦东新区康沈路2572号",
    "type": "执行矫正",
    "label": "潜在异常",
    "value": 1
  },
  {
    "time": "2018-02-01",
    "lng": 121.579,
    "lat": 31.014,
    "address": "上海市浦东新区丰桥村566号",
    "type": "执行矫正",
    "label": "潜在异常",
    "value": 1
  },
  {
    "time": "2018-02-01",
    "lng": 121.582,
    "lat": 31.075,
    "address": "上海市浦东新区沪南公路4615号",
    "type": "执行矫正",
    "label": "潜在异常",
    "value": 1
  },
  {
    "time": "2018-02-01",
    "lng": 121.585,
    "lat": 31.053,
    "address": "上海市浦东新区沪南路5214号",
    "type": "执行矫正",
    "label": "潜在异常",
    "value": 1
  },
  {
    "time": "2018-02-01",
    "lng": 121.593,
    "lat": 31.029,
    "address": "上海市浦东新区沪南路5547号",
    "type": "执行矫正",
    "label": "潜在异常",
    "value": 1
  },
  {
    "time": "2018-03-31",
    "lng": 121.631,
    "lat": 31.227,
    "address": "中国上海市浦东新区S121(龙东大道)在曼唯尔比萨(龙东大道店)附近",
    "type": "执行矫正",
    "label": "潜在异常",
    "value": 2
  },
  {
    "time": "2018-03-31",
    "lng": 121.631,
    "lat": 31.227,
    "address": "中国上海市浦东新区S121(龙东大道)在曼唯尔比萨(龙东大道店)附近",
    "type": "执行矫正",
    "label": "潜在异常",
    "value": 2
  },
  {
    "time": "2018-03-31",
    "lng": 121.654,
    "lat": 31.092,
    "address": "上海市浦东新区",
    "type": "执行矫正",
    "label": "潜在异常",
    "value": 1
  },
  {
    "time": "2018-03-31",
    "lng": 121.679,
    "lat": 31.311,
    "address": "上海市浦东新区",
    "type": "执行矫正",
    "label": "潜在异常",
    "value": 1
  },
  {
    "time": "2018-03-31",
    "lng": 121.712,
    "lat": 31.256,
    "address": "上海市浦东新区",
    "type": "执行矫正",
    "label": "潜在异常",
    "value": 1
  },
  {
    "time": "2018-03-31",
    "lng": 121.726,
    "lat": 31.412,
    "address": "上海市崇明县G40(沪陕高速)",
    "type": "执行矫正",
    "label": "潜在异常",
    "value": 1
  },
  {
    "time": "2018-03-31",
    "lng": 121.736,
    "lat": 31.421,
    "address": "上海市崇明县",
    "type": "执行矫正",
    "label": "潜在异常",
    "value": 1
  },
  {
    "time": "2018-03-31",
    "lng": 121.745,
    "lat": 31.097,
    "address": "上海市浦东新区",
    "type": "执行矫正",
    "label": "潜在异常",
    "value": 1
  },
  {
    "time": "2018-03-31",
    "lng": 121.751,
    "lat": 31.196,
    "address": "上海市浦东新区G1501(上海绕城高速)",
    "type": "执行矫正",
    "label": "潜在异常",
    "value": 1
  },
  {
    "time": "2018-03-31",
    "lng": 121.769,
    "lat": 31.47,
    "address": "上海市崇明县",
    "type": "执行矫正",
    "label": "潜在异常",
    "value": 1
  },
  {
    "time": "2018-03-31",
    "lng": 121.773,
    "lat": 31.129,
    "address": "上海市浦东新区G1501(上海绕城高速)",
    "type": "执行矫正",
    "label": "潜在异常",
    "value": 1
  },
  {
    "time": "2018-05-29",
    "lng": 121.782,
    "lat": 31.103,
    "address": "上海市浦东新区S32(申嘉湖高速)",
    "type": "执行矫正",
    "label": "潜在异常",
    "value": 1
  },
  {
    "time": "2018-03-31",
    "lng": 121.791,
    "lat": 31.509,
    "address": "上海市崇明县",
    "type": "执行矫正",
    "label": "潜在异常",
    "value": 1
  },
  {
    "time": "2018-05-29",
    "lng": 121.799,
    "lat": 31.154,
    "address": "中国上海市浦东新区启航路900号在上海浦东国际机场附近",
    "type": "执行矫正",
    "label": "潜在异常",
    "value": 1
  },
  {
    "time": "2018-05-29",
    "lng": 121.807,
    "lat": 31.142,
    "address": "上海市浦东新区",
    "type": "执行矫正",
    "label": "潜在异常",
    "value": 1
  },
  {
    "time": "2018-03-31",
    "lng": 121.829,
    "lat": 31.491,
    "address": "上海市崇明县",
    "type": "执行矫正",
    "label": "潜在异常",
    "value": 1
  },
  {
    "time": "2018-03-31",
    "lng": 121.857,
    "lat": 31.458,
    "address": "上海市崇明县东滩大道",
    "type": "执行矫正",
    "label": "潜在异常",
    "value": 1
  },
  {
    "time": "2018-03-31",
    "lng": 121.868,
    "lat": 31.456,
    "address": "上海市崇明县",
    "type": "执行矫正",
    "label": "潜在异常",
    "value": 2
  },
  {
    "time": "2018-03-31",
    "lng": 121.868,
    "lat": 31.456,
    "address": "上海市崇明县",
    "type": "执行矫正",
    "label": "潜在异常",
    "value": 2
  },
  {
    "time": "2018-03-31",
    "lng": 121.869,
    "lat": 31.455,
    "address": "中国上海市崇明县东滩大道在东滩商务中心附近",
    "type": "执行矫正",
    "label": "潜在异常",
    "value": 1
  }
]